"","id","ReportType","CurrentStatus","Description","DateCreate_Converted","DateClosed_Converted","location","crecondate","clocondate","HLReportType","timespan","WeeksToClose","NoName","latitude","longitude","state","AUTO_UNIQUE_ID_2021-01-30_AdrianaGray_rgsample10","UpdatedReverseGeocoding","TimeTaken","TransactionId","Source","ErrorMessage","Version","ComputedStreetAddress","ComputedCity","ComputedState","ComputedZip","ComputedZipPlus4","ComputedAPN","Area","MHP","MedianHomePrice"
"1",616659,"Light","Closed","At intersection of Ulupii St. and Uluamahi Pl. Very dark corner now.","12/06/2018 06:59:14 AM","12/06/2018 08:27:42 AM","(21.37542901, -157.756160058)",2018-12-06 06:59:14,2018-12-06 08:27:42,"RoadSafety",5308s (~1.47 hours),0.00877645502645503,702,21.37542901,-157.756160058,"HI",702,1,156.2235,NA,"AggieReverseGeocoder",NA,4.01,"1614 Ulupii St","Waimanalo","HI",96734,4445,42044040,"Windward",604900,"600k+"
"2",604628,"Tree","Closed","Trees resting on power lines. There have been many outages due to fallen trees. One resulted in insurance claims from most of the residents due to a power surge when power was restored","11/05/2018 10:22:20 AM","11/05/2018 03:58:34 PM","(21.256807617, -157.814729443)",2018-11-05 10:22:20,2018-11-05 15:58:34,"Tree",20174s (~5.6 hours),0.0333564814814815,253,21.256807617,-157.814729443,"HI",253,1,374.9972,NA,"AggieReverseGeocoder",NA,4.01,"3190 Diamond Head Rd","Urban Honolulu","HI",96815,4720,31035002,"UrbanHNL",683000,"600k+"
"3",594221,"Trash","Closed","Ewa, mauka corner of Varsity Pl. and Kalo Pl.  Intersection being used as moped dumping ground. People strip mopeds and leave parts, dump fluids, etc in area.","10/09/2018 05:39:25 PM","10/10/2018 08:02:44 AM","(21.292271067, -157.8196101)",2018-10-09 17:39:25,2018-10-10 08:02:44,"Trash",51799s (~14.39 hours),0.0856464947089947,266,21.292271067,-157.8196101,"HI",266,1,1000.0242,NA,"AggieReverseGeocoder",NA,4.01,"1054 Kalo Pl","Urban Honolulu","HI",96826,1635,28024024,"UrbanHNL",683000,"600k+"
"4",558164,"Trash","Closed","Desk and bed frame pieces dumped on the makai side of the road","07/26/2018 08:33:09 PM","07/27/2018 08:12:05 AM","(21.308918697, -157.849242295)",2018-07-26 20:33:09,2018-07-27 08:12:05,"Trash",41936s (~11.65 hours),0.0693386243386243,343,21.308918697,-157.849242295,"HI",343,1,643.891,NA,"AggieReverseGeocoder",NA,4.01,"1609 Alapai St","Urban Honolulu","HI",96813,1901,22004033,"UrbanHNL",683000,"600k+"
"5",547478,"Homeless","Closed","Black BMW with flat tire and broken tail lights parked on side of this street for at least 3 weeks.","07/07/2018 12:03:03 PM","07/09/2018 08:49:19 AM","(21.300299658, -157.859699552)",2018-07-07 12:03:03,2018-07-09 08:49:19,"Homeless",161176s (~1.87 days),0.266494708994709,753,21.300299658,-157.859699552,"HI",753,1,867.0647,NA,"AggieReverseGeocoder",NA,4.01,"690 Pohukaina St","Urban Honolulu","HI",96813,5116,21051009,"UrbanHNL",683000,"600k+"
"6",538804,"Light","Closed","several light poles are out along the right side of the road as you yield from Kalanianaole onto Kamehameha","06/19/2018 09:39:42 PM","06/20/2018 07:54:26 AM","(21.375406443, -157.780779345)",2018-06-19 21:39:42,2018-06-20 07:54:26,"RoadSafety",36884s (~10.25 hours),0.0609854497354497,1734,21.375406443,-157.780779345,"HI",1734,1,734.4163,NA,"AggieReverseGeocoder",NA,4.01,"1199 Auloa Rd","Waimanalo","HI",96734,4606,45035003,"Windward",604900,"600k+"
"7",535455,"Trash","Closed","Both sides of the street littered with trash and tent cities.  Unable to walk using sidewalks","06/12/2018 05:26:43 PM","06/13/2018 10:30:40 AM","(21.3016311, -157.8576977)",2018-06-12 17:26:43,2018-06-13 10:30:40,"Trash",61437s (~17.07 hours),0.101582341269841,239,21.3016311,-157.8576977,"HI",239,1,921.8184,NA,"AggieReverseGeocoder",NA,4.01,"627 Queen St","Urban Honolulu","HI",96813,5113,21031032,"UrbanHNL",683000,"600k+"
"8",529450,"Tree","Closed","2454 and 3458 E. Manoa RD. Mock orange hedges overgrown extending halfway over sidewalk. Needs trimming to property line.","05/31/2018 03:18:04 PM","05/31/2018 03:24:56 PM","(21.310595151, -157.809050483)",2018-05-31 15:18:04,2018-05-31 15:24:56,"Tree",412s (~6.87 minutes),0.000681216931216931,1302,21.310595151,-157.809050483,"HI",1302,1,406.2439,NA,"AggieReverseGeocoder",NA,4.01,"2958 East Manoa Rd","Urban Honolulu","HI",96822,1804,29021040,"UrbanHNL",683000,"600k+"
"9",516986,"Light","Closed","Two adjacent pole lights out","05/08/2018 08:03:32 PM","05/09/2018 08:01:24 AM","(21.2567191, -157.8030535)",2018-05-08 20:03:32,2018-05-09 08:01:24,"RoadSafety",43072s (~11.96 hours),0.0712169312169312,292,21.2567191,-157.8030535,"HI",292,1,437.5489,NA,"AggieReverseGeocoder",NA,4.01,"3617 Diamond Head Rd","Urban Honolulu","HI",96816,4430,31038033,"UrbanHNL",683000,"600k+"
"10",514633,"Tree","Closed","Tree branch broke off and tree is dangerous","05/03/2018 10:23:43 AM","05/03/2018 10:32:14 AM","(21.305725131, -157.850158473)",2018-05-03 10:23:43,2018-05-03 10:32:14,"Tree",511s (~8.52 minutes),0.000844907407407407,1516,21.305725131,-157.850158473,"HI",1516,1,406.2436,NA,"AggieReverseGeocoder",NA,4.01,"757 Kinalau Pl","Urban Honolulu","HI",96813,2638,21040014,"UrbanHNL",683000,"600k+"
"11",507391,"Pothole","Closed","Large pothole, almost three feet wide","04/17/2018 09:18:11 AM","04/17/2018 09:46:27 AM","(21.310804029, -157.858695907)",2018-04-17 09:18:11,2018-04-17 09:46:27,"RoadSafety",1696s (~28.27 minutes),0.0028042328042328,1157,21.310804029,-157.858695907,"HI",1157,1,1312.5043,NA,"AggieReverseGeocoder",NA,4.01,"130 S Beretania St","Urban Honolulu","HI",96813,2702,21009027,"UrbanHNL",683000,"600k+"
"12",504939,"Broken / Vandalized signs","Closed","No parking sign falling fown","04/11/2018 08:35:11 AM","04/11/2018 12:01:16 PM","(21.391887307, -157.718360254)",2018-04-11 08:35:11,2018-04-11 12:01:16,"RoadSafety",12365s (~3.43 hours),0.0204447751322751,1077,21.391887307,-157.718360254,"HI",1077,1,736.9224,NA,"AggieReverseGeocoder",NA,4.01,"901 Aalapapa Dr","Waimanalo","HI",96734,3117,43007049,"Windward",604900,"600k+"
"13",500241,"Light","Closed","light disconnected with removal of old pole & taped to new pole","03/31/2018 11:35:27 AM","04/02/2018 09:30:56 AM","(21.260564926, -157.790607028)",2018-03-31 11:35:27,2018-04-02 09:30:56,"RoadSafety",165329s (~1.91 days),0.273361441798942,697,21.260564926,-157.790607028,"HI",697,1,249.9651,NA,"AggieReverseGeocoder",NA,4.01,"4388 Kahala Ave","Urban Honolulu","HI",96816,4856,35013003,"UrbanHNL",683000,"600k+"
"14",497020,"Homeless","Closed","looks like a homeless is setting up house under the Mccully bridge.","03/23/2018 11:17:35 PM","03/27/2018 09:16:11 AM","(21.297992674, -157.829230301)",2018-03-23 23:17:35,2018-03-27 09:16:11,"Homeless",295116s (~3.42 days),0.487956349206349,1094,21.297992674,-157.829230301,"HI",1094,1,956.4021,NA,"AggieReverseGeocoder",NA,4.01,"1945 Bingham St","Urban Honolulu","HI",96826,1329,28010057,"UrbanHNL",683000,"600k+"
"15",491641,"Trash","Closed","tires, trash, furniture and appliances","03/12/2018 10:45:41 AM","03/12/2018 10:46:56 AM","(21.314986637, -157.669970208)",2018-03-12 10:45:41,2018-03-12 10:46:56,"Trash",75s (~1.25 minutes),0.000124007936507937,381,21.314986637,-157.669970208,"HI",381,1,312.5294,NA,"AggieReverseGeocoder",NA,4.01,"1492 Honokahua St","East Honolulu","HI",96825,3041,39104004,"EastHNL",959800,"900k+"
"16",490223,"Light","Closed","This is an official CitySourced test. Please ignore. Call me if needed but you should ignore this test service request.","03/08/2018 02:18:17 PM","03/09/2018 07:43:29 AM","(21.3067801, -157.8627595)",2018-03-08 14:18:17,2018-03-09 07:43:29,"RoadSafety",62712s (~17.42 hours),0.103690476190476,1363,21.3067801,-157.8627595,"HI",1363,1,312.4744,NA,"AggieReverseGeocoder",NA,4.01,"701 Bishop St","Urban Honolulu","HI",96813,4814,21014003,"UrbanHNL",683000,"600k+"
"17",487359,"Pothole","Closed","Pot hole on the right hand lane on Hamakua. Cactus restaurant will be on the right heading-towards kimots surf hut and kalapawai market.","03/02/2018 10:49:29 PM","03/05/2018 07:53:10 AM","(21.39305952, -157.744902832)",2018-03-02 22:49:29,2018-03-05 07:53:10,"RoadSafety",205421s (~2.38 days),0.339651124338624,654,21.39305952,-157.744902832,"HI",654,1,265.5443,NA,"AggieReverseGeocoder",NA,4.01,"767 Kailua Rd","Waimanalo","HI",96734,2842,42038025,"Windward",604900,"600k+"
"18",479921,"Pothole","Closed","Pavement is sinking/cracking","02/17/2018 07:58:47 AM","02/20/2018 08:51:07 AM","(21.334238418, -157.854441092)",2018-02-17 07:58:47,2018-02-20 08:51:07,"RoadSafety",262340s (~3.04 days),0.433763227513227,78,21.334238418,-157.854441092,"HI",78,1,1203.1715,NA,"AggieReverseGeocoder",NA,4.01,"1156 Alewa Dr","Urban Honolulu","HI",96817,1543,18033022,"UrbanHNL",683000,"600k+"
"19",478389,"Light","Closed","Cement around pole broken","02/13/2018 11:49:33 AM","02/13/2018 11:57:27 AM","(21.306867693, -157.855690346)",2018-02-13 11:49:33,2018-02-13 11:57:27,"RoadSafety",474s (~7.9 minutes),0.000783730158730159,862,21.306867693,-157.855690346,"HI",862,1,1348.8814,NA,"AggieReverseGeocoder",NA,4.01,"1250 Punchbowl St","Urban Honolulu","HI",96813,2416,21018047,"UrbanHNL",683000,"600k+"
"20",477942,"Broken / Vandalized signs","Closed","Test  please ignore","02/12/2018 05:11:38 PM","02/13/2018 07:53:53 AM","(21.304304023, -157.854148977)",2018-02-12 17:11:38,2018-02-13 07:53:53,"RoadSafety",52935s (~14.7 hours),0.0875248015873016,560,21.304304023,-157.854148977,"HI",560,1,187.5195,NA,"AggieReverseGeocoder",NA,4.01,"1130 Alapai St","Urban Honolulu","HI",96813,2584,21033010,"UrbanHNL",683000,"600k+"
"21",477212,"Trash","Closed","Difficult for vehicles to turn down Frog Lane. Sidewalk blocked to pedestrians.","02/11/2018 08:02:01 AM","02/12/2018 10:08:03 AM","(21.320562833, -157.857656366)",2018-02-11 08:02:01,2018-02-12 10:08:03,"Trash",93962s (~1.09 days),0.15536044973545,901,21.320562833,-157.857656366,"HI",901,1,1002.019,NA,"AggieReverseGeocoder",NA,4.01,"303 Puuhue Pl","Urban Honolulu","HI",96817,3132,17018059,"UrbanHNL",683000,"600k+"
"22",477210,"Trash","Closed","Has become a chronic place for dumping and debris spills into street making it difficult for vehicles to turn down Frog Lane. Sidewalk blocked to pedestrians.","02/11/2018 08:00:16 AM","02/12/2018 10:07:35 AM","(21.320562833, -157.857656366)",2018-02-11 08:00:16,2018-02-12 10:07:35,"Trash",94039s (~1.09 days),0.155487764550265,1442,21.320562833,-157.857656366,"HI",1442,1,0,NA,"AggieReverseGeocoder",NA,4.01,"303 Puuhue Pl","Urban Honolulu","HI",96817,3132,17018059,"UrbanHNL",683000,"600k+"
"23",475094,"Tree","Closed","Large Cabbage tree has uplifted sidewalk, a tripping hazard.","02/05/2018 07:55:31 AM","02/05/2018 10:35:25 AM","(21.2879757, -157.692015)",2018-02-05 07:55:31,2018-02-05 10:35:25,"Tree",9594s (~2.66 hours),0.0158630952380952,1682,21.2879757,-157.692015,"HI",1682,1,312.5481,NA,"AggieReverseGeocoder",NA,4.01,"693 Kapaia St","East Honolulu","HI",96825,2415,39064009,"EastHNL",959800,"900k+"
"24",472329,"Homeless","Closed","Lots of junk stored for a long time","01/28/2018 10:26:40 AM","01/29/2018 11:04:20 AM","(21.296152596, -157.805192947)",2018-01-28 10:26:40,2018-01-29 11:04:20,"Homeless",88660s (~1.03 days),0.146593915343915,275,21.296152596,-157.805192947,"HI",275,1,762.175,NA,"AggieReverseGeocoder",NA,4.01,"1574 Alencastre St","Urban Honolulu","HI",96816,1937,33052016,"UrbanHNL",683000,"600k+"
"25",463887,"Trash","Closed","Intersection of 10th Ave and LadI Road.  Big & Bulky Trash has been there since 12/20.  Pile continues to grow.  All other areas in Palolo have been picked up.","01/03/2018 07:56:09 PM","01/04/2018 08:57:35 AM","(21.305473835, -157.788531934)",2018-01-03 19:56:09,2018-01-04 08:57:35,"Trash",46886s (~13.02 hours),0.0775231481481481,133,21.305473835,-157.788531934,"HI",133,1,377.028,NA,"AggieReverseGeocoder",NA,4.01,"2515 Lai Rd","Urban Honolulu","HI",96816,3513,34012043,"UrbanHNL",683000,"600k+"
"26",462548,"Trash","Closed","Old mattress, chair, box spring, refrigerator, 2 file cabinets","12/29/2017 08:16:30 PM","01/03/2018 10:34:50 AM","(21.30877166, -157.848954248)",2017-12-29 20:16:30,2018-01-03 10:34:50,"Trash",397100s (~4.6 days),0.656580687830688,118,21.30877166,-157.848954248,"HI",118,1,1249.8991,NA,"AggieReverseGeocoder",NA,4.01,"711 Prospect St","Urban Honolulu","HI",96813,1939,21039030,"UrbanHNL",683000,"600k+"
"27",460154,"Vehicle","Closed","IN TO TOW","12/20/2017 12:03:57 AM","12/20/2017 07:55:00 AM","(21.329332342, -157.865476445)",2017-12-20 00:03:57,2017-12-20 07:55:00,"Vehicle",28263s (~7.85 hours),0.0467311507936508,1726,21.329332342,-157.865476445,"HI",1726,1,1410.4344,NA,"AggieReverseGeocoder",NA,4.01,"1127 N School St","Urban Honolulu","HI",96817,2912,16006036,"UrbanHNL",683000,"600k+"
"28",459949,"Vehicle","Closed","Older white Toyota Corolla 4dr sedan","12/19/2017 08:20:17 AM","12/19/2017 08:28:43 AM","(21.272843817, -157.795520929)",2017-12-19 08:20:17,2017-12-19 08:28:43,"Vehicle",506s (~8.43 minutes),0.000836640211640212,1076,21.272843817,-157.795520929,"HI",1076,1,439.8162,NA,"AggieReverseGeocoder",NA,4.01,"3944 Maunaloa Ave","Urban Honolulu","HI",96816,8104,32052004,"UrbanHNL",683000,"600k+"
"29",459337,"Vehicle","Closed","Need to tow","12/17/2017 12:52:32 PM","12/18/2017 08:23:38 AM","(21.329310619, -157.865497483)",2017-12-17 12:52:32,2017-12-18 08:23:38,"Vehicle",70266s (~19.52 hours),0.116180555555556,1328,21.329310619,-157.865497483,"HI",1328,1,1015.6533,NA,"AggieReverseGeocoder",NA,4.01,"1127 N School St","Urban Honolulu","HI",96817,2912,16006036,"UrbanHNL",683000,"600k+"
"30",459227,"Vehicle","Closed","Abandoned vehicle with multiple citations has been parked and unmoved for at least 2 months. License plates have been removed. Please tow immediately.","12/16/2017 05:36:47 PM","12/18/2017 08:29:14 AM","(21.330218584, -157.857818609)",2017-12-16 17:36:47,2017-12-18 08:29:14,"Vehicle",139947s (~1.62 days),0.231393849206349,918,21.330218584,-157.857818609,"HI",918,1,1328.0899,NA,"AggieReverseGeocoder",NA,4.01,"922 Lolena St","Urban Honolulu","HI",96817,2141,18020013,"UrbanHNL",683000,"600k+"
"31",459165,"Vehicle","Closed","Abandoned van has had multiple citations and still has not been towed. It has been parked here for about 2 months and has never been moved. It does not have license plates. Please tow.","12/16/2017 09:10:52 AM","12/18/2017 08:28:49 AM","(21.330189465, -157.857734165)",2017-12-16 09:10:52,2017-12-18 08:28:49,"Vehicle",170277s (~1.97 days),0.281542658730159,823,21.330189465,-157.857734165,"HI",823,1,730.6763,NA,"AggieReverseGeocoder",NA,4.01,"922 Lolena St","Urban Honolulu","HI",96817,2141,18020013,"UrbanHNL",683000,"600k+"
"32",459025,"Vehicle","Closed","White 2 door Chevy Silverado.","12/15/2017 12:48:53 PM","12/19/2017 03:43:31 PM","(21.436429913, -158.166705994)",2017-12-15 12:48:53,2017-12-19 15:43:31,"Vehicle",356078s (~4.12 days),0.588753306878307,1123,21.436429913,-158.166705994,"HI",1123,1,1093.6872,NA,"AggieReverseGeocoder",NA,4.01,"86-405 LUALUALEI HMSTD RD","Waianae","HI",96792,NA,93059,"Leeward",375100,"300k+"
"33",458964,"Vehicle","Closed","As described above","12/15/2017 09:40:30 AM","12/18/2017 08:26:06 AM","(21.334727, -157.8614604)",2017-12-15 09:40:30,2017-12-18 08:26:06,"Vehicle",254736s (~2.95 days),0.421190476190476,1269,21.334727,-157.8614604,"HI",1269,1,171.8802,NA,"AggieReverseGeocoder",NA,4.01,"2001 Aupuni St","Urban Honolulu","HI",96817,2079,16018084,"UrbanHNL",683000,"600k+"
"34",458455,"Broken / Vandalized signs","Closed","Graffiti-spray paint","12/13/2017 04:59:13 PM","03/22/2018 08:47:00 AM","(21.288175164, -157.83996968)",2017-12-13 16:59:13,2018-03-22 08:47:00,"RoadSafety",8524067s (~14.09 weeks),14.0940261243386,1346,21.288175164,-157.83996968,"HI",1346,1,437.505,NA,"AggieReverseGeocoder",NA,4.01,"1599 Ala Moana Blvd","Urban Honolulu","HI",96814,4601,23037006,"UrbanHNL",683000,"600k+"
"35",457668,"Vehicle","Closed","Parked next to fire hydrant","12/11/2017 02:49:53 PM","12/11/2017 02:57:57 PM","(21.439729384, -158.178973359)",2017-12-11 14:49:53,2017-12-11 14:57:57,"Vehicle",484s (~8.07 minutes),0.00080026455026455,969,21.439729384,-158.178973359,"HI",969,1,1109.4009,NA,"AggieReverseGeocoder",NA,4.01,"86-221 MOEHA ST","Waianae","HI",96792,NA,2902,"Leeward",375100,"300k+"
"36",456965,"Vehicle","Closed","Limo","12/08/2017 05:49:36 PM","12/12/2017 08:59:34 AM","(21.290625977, -157.798384494)",2017-12-08 17:49:36,2017-12-12 08:59:34,"Vehicle",313798s (~3.63 days),0.518845899470899,989,21.290625977,-157.798384494,"HI",989,1,0,NA,"AggieReverseGeocoder",NA,4.01,"3446 Pakui St","Urban Honolulu","HI",96816,2838,33040020,"UrbanHNL",683000,"600k+"
"37",456963,"Vehicle","Closed","Limo","12/08/2017 05:49:13 PM","12/12/2017 08:59:16 AM","(21.290625977, -157.798384494)",2017-12-08 17:49:13,2017-12-12 08:59:16,"Vehicle",313803s (~3.63 days),0.518854166666667,914,21.290625977,-157.798384494,"HI",914,1,203.1798,NA,"AggieReverseGeocoder",NA,4.01,"3446 Pakui St","Urban Honolulu","HI",96816,2838,33040020,"UrbanHNL",683000,"600k+"
"38",455411,"Vehicle","Closed","This Xterra is covered with bird droppings filled with junk and one window is down.","12/04/2017 10:54:38 AM","12/04/2017 03:43:32 PM","(21.288219785, -157.836372005)",2017-12-04 10:54:38,2017-12-04 15:43:32,"Vehicle",17334s (~4.82 hours),0.0286607142857143,1663,21.288219785,-157.836372005,"HI",1663,1,1031.2838,NA,"AggieReverseGeocoder",NA,4.01,"1701 Ala Wai Blvd","Urban Honolulu","HI",96815,1509,26013017,"UrbanHNL",683000,"600k+"
"39",454428,"Trash","Closed","Human Took a Dump right on a Bus Bench....","11/30/2017 02:51:18 PM","11/30/2017 03:17:16 PM","(21.282381012, -157.798430047)",2017-11-30 14:51:18,2017-11-30 15:17:16,"Trash",1558s (~25.97 minutes),0.0025760582010582,691,21.282381012,-157.798430047,"HI",691,1,1078.1665,NA,"AggieReverseGeocoder",NA,4.01,"3630 Waialae Ave","Urban Honolulu","HI",96816,3225,33007020,"UrbanHNL",683000,"600k+"
"40",454424,"Trash","Closed","Human Took a Dump right on a Bus Bench","11/30/2017 02:50:40 PM","11/30/2017 03:16:35 PM","(21.282381012, -157.798430047)",2017-11-30 14:50:40,2017-11-30 15:16:35,"Trash",1555s (~25.92 minutes),0.00257109788359788,1630,21.282381012,-157.798430047,"HI",1630,1,0,NA,"AggieReverseGeocoder",NA,4.01,"3630 Waialae Ave","Urban Honolulu","HI",96816,3225,33007020,"UrbanHNL",683000,"600k+"
"41",454365,"Vehicle","Closed","Silver Honda moon roof hood strip","11/30/2017 11:49:00 AM","11/30/2017 11:58:31 AM","(21.336370694, -157.854314617)",2017-11-30 11:49:00,2017-11-30 11:58:31,"Vehicle",571s (~9.52 minutes),0.000944113756613757,1112,21.336370694,-157.854314617,"HI",1112,1,718.7454,NA,"AggieReverseGeocoder",NA,4.01,"1317 Mamalu St","Urban Honolulu","HI",96817,1242,18032034,"UrbanHNL",683000,"600k+"
"42",452479,"Broken / Vandalized signs","Closed","Faded sign.  Thanks","11/24/2017 10:13:25 PM","11/27/2017 10:45:51 AM","(21.273655062, -157.823810171)",2017-11-24 22:13:25,2017-11-27 10:45:51,"RoadSafety",217946s (~2.52 days),0.36036044973545,305,21.273655062,-157.823810171,"HI",305,1,437.5357,NA,"AggieReverseGeocoder",NA,4.01,"130 Ohua Ave","Urban Honolulu","HI",96815,3642,26026012,"UrbanHNL",683000,"600k+"
"43",451046,"Vehicle","Closed","No tires. Full of trash.","11/19/2017 09:38:30 AM","11/20/2017 11:13:22 AM","(21.288956, -157.667252)",2017-11-19 09:38:30,2017-11-20 11:13:22,"Vehicle",92092s (~1.07 days),0.152268518518519,731,21.288956,-157.667252,"HI",731,1,536.813,NA,"AggieReverseGeocoder",NA,4.01,"296 Kipukai Pl","East Honolulu","HI",96825,2890,39105010,"EastHNL",959800,"900k+"
"44",449769,"Vehicle","Closed","Old junk car been sitting here for months","11/15/2017 08:23:16 AM","11/16/2017 01:52:21 PM","(21.295117711, -157.710927873)",2017-11-15 08:23:16,2017-11-16 13:52:21,"Vehicle",106145s (~1.23 days),0.175504298941799,1057,21.295117711,-157.710927873,"HI",1057,1,328.1324,NA,"AggieReverseGeocoder",NA,4.01,"521 Pepeekeo St","East Honolulu","HI",96825,5101,39038005,"EastHNL",959800,"900k+"
"45",448504,"Vehicle","Closed","Gold color. No license plate. Has been seen sitting in same spot from about/ around May of 2017","11/12/2017 08:39:33 PM","11/13/2017 12:36:06 PM","(21.398178232, -158.165205811)",2017-11-12 20:39:33,2017-11-13 12:36:06,"Vehicle",57393s (~15.94 hours),0.0948958333333333,660,21.398178232,-158.165205811,"HI",660,1,843.7284,NA,"AggieReverseGeocoder",NA,4.01,"87-1409 AKOWAI RD","Waianae","HI",96792,NA,102894,"Leeward",375100,"300k+"
"46",448503,"Vehicle","Closed","Car sits on bricks, tipping to the side. Windshield gone. Front end damaged( lights missing, bumper hanging off etc.) trunk open. Has license plate ( only on rear ) unable to make out numbers/ letters from my vantage point","11/12/2017 08:34:12 PM","11/13/2017 12:35:57 PM","(21.397759665, -158.164756437)",2017-11-12 20:34:12,2017-11-13 12:35:57,"Vehicle",57705s (~16.03 hours),0.0954117063492063,609,21.397759665,-158.164756437,"HI",609,1,828.0996,NA,"AggieReverseGeocoder",NA,4.01,"87-1423 AKOWAI RD","Waianae","HI",96792,NA,18126,"Leeward",375100,"300k+"
"47",447947,"Vehicle","Closed","optima","11/09/2017 06:38:02 PM","11/15/2017 03:16:14 PM","(21.329590862, -158.058004989)",2017-11-09 18:38:02,2017-11-15 15:16:14,"Vehicle",506292s (~5.86 days),0.837123015873016,215,21.329590862,-158.058004989,"HI",215,1,1374.9745,NA,"AggieReverseGeocoder",NA,4.01,"91-1039 PAPAA ST","Kapolei","HI",96707,NA,11595,"Leeward",570800,"500k+"
"48",446064,"Tree","Closed","Weeds on planting strip are tripping hazard.","11/03/2017 06:27:11 PM","11/06/2017 11:49:25 AM","(21.321343812, -157.803294002)",2017-11-03 18:27:11,2017-11-06 11:49:25,"Tree",235334s (~2.72 days),0.38911044973545,805,21.321343812,-157.803294002,"HI",805,1,328.1139,NA,"AggieReverseGeocoder",NA,4.01,"3441 Pipa Pl","Urban Honolulu","HI",96822,1221,29067061,"UrbanHNL",683000,"600k+"
"49",446054,"Vehicle","Closed","look at the picture","11/03/2017 05:43:55 PM","11/08/2017 09:47:07 AM","(21.648104653, -157.919416422)",2017-11-03 17:43:55,2017-11-08 09:47:07,"Vehicle",403392s (~4.67 days),0.666984126984127,220,21.648104653,-157.919416422,"HI",220,1,812.5009,NA,"AggieReverseGeocoder",NA,4.01,"55-129 NAUPAKA ST","Laie","HI",96762,NA,384313,"NorthShore",756000,"700k+"
"50",444845,"Vehicle","Closed","Stripped","10/31/2017 10:42:46 AM","10/31/2017 11:00:30 AM","(21.374713078, -157.780673052)",2017-10-31 10:42:46,2017-10-31 11:00:30,"Vehicle",1064s (~17.73 minutes),0.00175925925925926,406,21.374713078,-157.780673052,"HI",406,1,406.2536,NA,"AggieReverseGeocoder",NA,4.01,"1199 Auloa Rd","Waimanalo","HI",96734,4606,45035003,"Windward",604900,"600k+"
"51",443877,"Trash","Closed","Makai side of road","10/28/2017 01:50:54 PM","10/30/2017 08:50:03 AM","(21.255912635, -157.809032956)",2017-10-28 13:50:54,2017-10-30 08:50:03,"Trash",154749s (~1.79 days),0.255868055555556,796,21.255912635,-157.809032956,"HI",796,1,1093.7415,NA,"AggieReverseGeocoder",NA,4.01,"3381 Diamond Head Rd","Urban Honolulu","HI",96815,4723,31042003,"UrbanHNL",683000,"600k+"
"52",443714,"Vehicle","Closed","Rusted Anna held together with tie straps clear visible. Been there for over a week. Looks like dumped.","10/27/2017 02:37:46 PM","10/27/2017 04:00:21 PM","(21.330912741, -157.862008426)",2017-10-27 14:37:46,2017-10-27 16:00:21,"Vehicle",4955s (~1.38 hours),0.00819279100529101,1102,21.330912741,-157.862008426,"HI",1102,1,1171.8908,NA,"AggieReverseGeocoder",NA,4.01,"1739 Skyline Dr","Urban Honolulu","HI",96817,2004,16012047,"UrbanHNL",683000,"600k+"
"53",442530,"Vehicle","Closed","Been parked for over a month, has not moved tags expired","10/24/2017 03:21:12 PM","10/24/2017 03:27:26 PM","(21.35589203, -158.08270591)",2017-10-24 15:21:12,2017-10-24 15:27:26,"Vehicle",374s (~6.23 minutes),0.000618386243386243,86,21.35589203,-158.08270591,"HI",86,1,843.8003,NA,"AggieReverseGeocoder",NA,4.01,"92-1243 PANANA ST","Kapolei","HI",96707,NA,382624,"Leeward",570800,"500k+"
"54",441140,"Vehicle","Closed","Although on a private road, I believe a recent amendment allows the City to address concerns reported on abandoned private roads. The holder of the deed is nowhere to be found.","10/20/2017 12:33:55 PM","10/23/2017 01:16:34 PM","(21.265953, -157.814011)",2017-10-20 12:33:55,2017-10-23 13:16:34,"Vehicle",261759s (~3.03 days),0.432802579365079,1557,21.265953,-157.814011,"HI",1557,1,359.402,NA,"AggieReverseGeocoder",NA,4.01,"3820 Kanaina Ave","Urban Honolulu","HI",96815,4427,31027014,"UrbanHNL",683000,"600k+"
"55",438759,"Vehicle","Closed","Tires stripped and two wheels are flat, car has been there for weeks","10/15/2017 07:43:18 AM","10/18/2017 03:39:57 PM","(21.309753, -157.843857)",2017-10-15 07:43:18,2017-10-18 15:39:57,"Vehicle",287799s (~3.33 days),0.475858134920635,1705,21.309753,-157.843857,"HI",1705,1,1030.9986,NA,"AggieReverseGeocoder",NA,4.01,"1035 Prospect St","Urban Honolulu","HI",96822,3452,24016053,"UrbanHNL",683000,"600k+"
"56",404541,"Vehicle","Closed","Has a black hood, looks abandoned, no front license plate and has not moved in weeks","09/26/2017 02:46:54 PM","09/27/2017 09:01:01 AM","(21.282717, -157.795395)",2017-09-26 14:46:54,2017-09-27 09:01:01,"Vehicle",65647s (~18.24 hours),0.10854332010582,799,21.282717,-157.795395,"HI",799,1,454.966,NA,"AggieReverseGeocoder",NA,4.01,"1255  14th Ave","Urban Honolulu","HI",96816,3838,33010072,"UrbanHNL",683000,"600k+"
"57",398282,"Vehicle","Closed","Black truck with white  hood","09/20/2017 03:05:47 PM","09/26/2017 12:57:30 PM","(21.36965633, -157.73413638)",2017-09-20 15:05:47,2017-09-26 12:57:30,"Vehicle",510703s (~5.91 days),0.844416335978836,419,21.36965633,-157.73413638,"HI",419,1,156.2656,NA,"AggieReverseGeocoder",NA,4.01,"1522 Ponopono Pl","Waimanalo","HI",96734,4167,42097040,"Windward",604900,"600k+"
"58",395497,"Vehicle","Closed","Bluish green  sport utility vehicle/truck parked on street. Expired safety","09/13/2017 11:14:39 AM","09/20/2017 03:01:03 PM","(21.35238808, -158.0887077)",2017-09-13 11:14:39,2017-09-20 15:01:03,"Vehicle",618384s (~1.02 weeks),1.02246031746032,1718,21.35238808,-158.0887077,"HI",1718,1,1421.8871,NA,"AggieReverseGeocoder",NA,4.01,"92-109 LEIPAPA WAY","Kapolei","HI",96707,NA,3082,"Leeward",570800,"500k+"
"59",393674,"Trash","Closed","Burned out abandoned vehicle with broken windows and no plates. Still here since and is an eyesore to community! Please remove asap.","09/08/2017 12:12:00 PM","09/20/2017 10:33:00 AM","(21.416183, -157.764786)",2017-09-08 12:12:00,2017-09-20 10:33:00,"Trash",1030860s (~1.7 weeks),1.70446428571429,1460,21.416183,-157.764786,"HI",1460,1,556.799,NA,"AggieReverseGeocoder",NA,4.01,"100 Puwa Pl","Waimanalo","HI",96734,1743,44011003,"Windward",604900,"600k+"
"60",391097,"Vehicle","Closed","Parked in same spot for over one week; tires marked from previous complaints Mahalo","09/01/2017 07:15:00 AM","09/19/2017 01:08:03 PM","(21.326782, -157.862671)",2017-09-01 07:15:00,2017-09-19 13:08:03,"Vehicle",1576383s (~2.61 weeks),2.60645337301587,936,21.326782,-157.862671,"HI",936,1,1321.1196,NA,"AggieReverseGeocoder",NA,4.01,"842 N School St","Urban Honolulu","HI",96817,2919,17042002,"UrbanHNL",683000,"600k+"
"61",390000,"Homeless","Closed","Homeless","08/29/2017 05:14:35 PM","08/30/2017 08:36:46 AM","(21.29951861, -157.85755771)",2017-08-29 17:14:35,2017-08-30 08:36:46,"Homeless",55331s (~15.37 hours),0.0914864417989418,228,21.29951861,-157.85755771,"HI",228,1,453.224,NA,"AggieReverseGeocoder",NA,4.01,"610 Cooke St","Urban Honolulu","HI",96813,6008,21051038,"UrbanHNL",683000,"600k+"
"62",389576,"Vehicle","Closed","Truck has been parked and sitting for over 2 months","08/28/2017 07:25:40 PM","09/19/2017 12:14:30 PM","(21.285904, -157.815186)",2017-08-28 19:25:40,2017-09-19 12:14:30,"Vehicle",1874930s (~3.1 weeks),3.10008267195767,1668,21.285904,-157.815186,"HI",1668,1,797.1164,NA,"AggieReverseGeocoder",NA,4.01,"2738 Leialoha Ave","Urban Honolulu","HI",96816,1337,27031004,"UrbanHNL",683000,"600k+"
"63",388778,"Vehicle","Closed","Metallic light green Volvo with stereo ripped out possible stolen car has been sitting for months unattended","08/26/2017 01:59:28 PM","09/15/2017 04:11:47 PM","(21.313828, -157.850464)",2017-08-26 13:59:28,2017-09-15 16:11:47,"Vehicle",1735939s (~2.87 weeks),2.87026951058201,1096,21.313828,-157.850464,"HI",1096,1,953.1635,NA,"AggieReverseGeocoder",NA,4.01,"217 Prospect St","Urban Honolulu","HI",96813,1724,22003050,"UrbanHNL",683000,"600k+"
"64",387482,"Vehicle","Closed","Green. Broken. Abandoned. HPD already ran plates. No plate in front. Not stolen.","08/23/2017 09:26:05 AM","09/15/2017 12:58:17 PM","(21.313707, -157.854828)",2017-08-23 09:26:05,2017-09-15 12:58:17,"Vehicle",1999932s (~3.31 weeks),3.30676587301587,1246,21.313707,-157.854828,"HI",1246,1,1500.0529,NA,"AggieReverseGeocoder",NA,4.01,"1441 Pali Hwy","Urban Honolulu","HI",96813,2050,21005003,"UrbanHNL",683000,"600k+"
"65",385737,"Vehicle","Closed","See attached picture.","08/18/2017 11:28:25 AM","09/15/2017 10:58:47 AM","(21.3059983, -157.8335013)",2017-08-18 11:28:25,2017-09-15 10:58:47,"Vehicle",2417422s (~4 weeks),3.99706018518519,590,21.3059983,-157.8335013,"HI",590,1,171.923,NA,"AggieReverseGeocoder",NA,4.01,"1437 Dominis St","Urban Honolulu","HI",96822,3212,24024044,"UrbanHNL",683000,"600k+"
"66",382284,"Vehicle","Closed","Contractor's","08/09/2017 04:26:43 PM","09/06/2017 10:23:40 AM","(21.330431, -157.856583)",2017-08-09 16:26:43,2017-09-06 10:23:40,"Vehicle",2397417s (~3.96 weeks),3.96398313492063,1603,21.330431,-157.856583,"HI",1603,1,265.5994,NA,"AggieReverseGeocoder",NA,4.01,"2069 Iholena St","Urban Honolulu","HI",96817,2105,18020023,"UrbanHNL",683000,"600k+"
"67",377437,"Vehicle","Closed","It is a Toyota  Camry.  It looks like it was dumped on the street.","07/29/2017 07:54:01 AM","08/21/2017 11:58:38 AM","(21.398707699, -157.749696872)",2017-07-29 07:54:01,2017-08-21 11:58:38,"Vehicle",2001877s (~3.31 weeks),3.30998181216931,1489,21.398707699,-157.749696872,"HI",1489,1,328.1034,NA,"AggieReverseGeocoder",NA,4.01,"620 Auwai St","Waimanalo","HI",96734,5612,43062063,"Windward",604900,"600k+"
"68",374615,"Vehicle","Closed","Vehicle abandoned over 6 months. Expired plates. Tires marked and ticketed multiple times. Black VW cabrio. Please tow.  ASAP!!","07/20/2017 01:04:38 PM","07/26/2017 09:59:42 AM","(21.310158, -157.83139)",2017-07-20 13:04:38,2017-07-26 09:59:42,"Vehicle",507304s (~5.87 days),0.838796296296296,449,21.310158,-157.83139,"HI",449,1,218.7642,NA,"AggieReverseGeocoder",NA,4.01,"2101 Keeaumoku St","Urban Honolulu","HI",96822,2529,24026031,"UrbanHNL",683000,"600k+"
"69",374588,"Vehicle","Closed","Boat","07/20/2017 11:29:23 AM","08/04/2017 11:59:52 AM","(21.290398, -157.834656)",2017-07-20 11:29:23,2017-08-04 11:59:52,"Vehicle",1297829s (~2.15 weeks),2.14588128306878,1145,21.290398,-157.834656,"HI",1145,1,921.8903,NA,"AggieReverseGeocoder",NA,4.01,"704 Hauoli St","Urban Honolulu","HI",96826,3621,23032001,"UrbanHNL",683000,"600k+"
"70",370036,"Vehicle","Closed","Burned up.","07/07/2017 05:26:22 PM","07/17/2017 03:46:38 PM","(21.360331353, -157.737884004)",2017-07-07 17:26:22,2017-07-17 15:46:38,"Vehicle",858016s (~1.42 weeks),1.41867724867725,95,21.360331353,-157.737884004,"HI",95,1,390.69,NA,"AggieReverseGeocoder",NA,4.01,"98 Kanapuu Pl","Waimanalo","HI",96734,4186,42101049,"Windward",604900,"600k+"
"71",369693,"Vehicle","Closed","Flat front left tire broken window","07/06/2017 04:56:03 PM","07/17/2017 02:55:35 PM","(21.294174, -157.861908)",2017-07-06 16:56:03,2017-07-17 14:55:35,"Vehicle",943172s (~1.56 weeks),1.55947751322751,1150,21.294174,-157.861908,"HI",1150,1,375.0336,NA,"AggieReverseGeocoder",NA,4.01,"135 Ohe St","Urban Honolulu","HI",96813,5517,21060006,"UrbanHNL",683000,"600k+"
"72",369486,"Vehicle","Closed","Black Honda 2dr. Lic#: RDR867. EXPIRED SAFETY CHECK and MV REGISTRATION. Vehicle should not be on road, safety issue. Previously reported since 05/24/17. Vehicle will most likely stay there for the week or more and do it all over again! What a vicious cy","07/06/2017 07:33:55 AM","07/10/2017 02:46:36 PM","(21.3193395, -158.02071)",2017-07-06 07:33:55,2017-07-10 14:46:36,"Vehicle",371561s (~4.3 days),0.614353505291005,529,21.3193395,-158.02071,"HI",529,1,1890.6501,NA,"AggieReverseGeocoder",NA,4.01,"91-1031 KAIKO ST","Ewa Beach","HI",96706,NA,110318,"Leeward",551200,"500k+"
"73",368391,"Vehicle","Closed","Please remove abandoned vehicle","07/03/2017 03:37:54 PM","07/10/2017 10:26:58 AM","(21.438782, -158.18219)",2017-07-03 15:37:54,2017-07-10 10:26:58,"Vehicle",586144s (~6.78 days),0.969153439153439,919,21.438782,-158.18219,"HI",919,1,1265.6554,NA,"AggieReverseGeocoder",NA,4.01,"86-943 MOELIMA ST","Waianae","HI",96792,NA,11788,"Leeward",375100,"300k+"
"74",368259,"Vehicle","Closed","Black Honda 2dr. Lic#: RDR867. EXPIRED SAFETY CHECK and MV REGISTRATION. Vehicle should not be on road, safety issue. Previously reported since 05/24/17. VehiclE switched with another noncompliant vehicle within the same stall area and will most likely s","07/03/2017 08:02:10 AM","07/07/2017 03:08:11 PM","(21.3193395, -158.02071)",2017-07-03 08:02:10,2017-07-07 15:08:11,"Vehicle",371161s (~4.3 days),0.61369212962963,621,21.3193395,-158.02071,"HI",621,1,0,NA,"AggieReverseGeocoder",NA,4.01,"91-1031 KAIKO ST","Ewa Beach","HI",96706,NA,110318,"Leeward",551200,"500k+"
"75",364899,"Vehicle","Closed","Blue Jeep Wrangler. Lic#: RXN048. Previously reported since 05/24/17. Vehicle did not move until 6/19/17. As of 6/21/17 it has not moved for more than 24 hrs since then. I am a disabled driver and would appreciate an available stall near my home but this","06/23/2017 06:31:36 AM","06/23/2017 07:58:29 AM","(21.3193395, -158.02071)",2017-06-23 06:31:36,2017-06-23 07:58:29,"Vehicle",5213s (~1.45 hours),0.00861937830687831,1058,21.3193395,-158.02071,"HI",1058,1,0,NA,"AggieReverseGeocoder",NA,4.01,"91-1031 KAIKO ST","Ewa Beach","HI",96706,NA,110318,"Leeward",551200,"500k+"
"76",364734,"Vehicle","Closed","Black Ford Explorer, expired tags and inspection.","06/22/2017 04:55:56 PM","06/23/2017 08:55:00 AM","(21.317902, -158.021011)",2017-06-22 16:55:56,2017-06-23 08:55:00,"Vehicle",57544s (~15.98 hours),0.0951455026455026,1498,21.317902,-158.021011,"HI",1498,1,1365.414,NA,"AggieReverseGeocoder",NA,4.01,"91-1071 KAIKO ST","Ewa Beach","HI",96706,NA,295745,"Leeward",551200,"500k+"
"77",363248,"Vehicle","Closed","Black Honda RDR867","06/19/2017 09:26:31 AM","06/19/2017 09:59:27 AM","(21.3193395, -158.02071)",2017-06-19 09:26:31,2017-06-19 09:59:27,"Vehicle",1976s (~32.93 minutes),0.00326719576719577,1125,21.3193395,-158.02071,"HI",1125,1,0,NA,"AggieReverseGeocoder",NA,4.01,"91-1031 KAIKO ST","Ewa Beach","HI",96706,NA,110318,"Leeward",551200,"500k+"
"78",362207,"Vehicle","Closed","Whit Ford Expedition that hasn't moved in months","06/15/2017 08:19:33 PM","06/16/2017 08:53:11 AM","(21.303290691, -157.833231763)",2017-06-15 20:19:33,2017-06-16 08:53:11,"Vehicle",45218s (~12.56 hours),0.0747652116402116,557,21.303290691,-157.833231763,"HI",557,1,687.5133,NA,"AggieReverseGeocoder",NA,4.01,"1566 Wilder Ave","Urban Honolulu","HI",96822,4648,24023087,"UrbanHNL",683000,"600k+"
"79",360767,"Vehicle","Closed","Vehicle had an Abandoned yellow slip on it, but someone has removed it.","06/12/2017 10:50:15 AM","06/14/2017 09:53:04 AM","(21.35327487, -158.02479924)",2017-06-12 10:50:15,2017-06-14 09:53:04,"Vehicle",169369s (~1.96 days),0.280041335978836,1095,21.35327487,-158.02479924,"HI",1095,1,0,NA,"AggieReverseGeocoder",NA,4.01,"91-1030 AEAE ST","Ewa Beach","HI",96706,NA,362782,"Leeward",551200,"500k+"
"80",360104,"Vehicle","Closed","Vehicle had an Abandoned yellow slip on it, but someone has removed it.","06/10/2017 06:53:05 AM","06/14/2017 09:12:45 AM","(21.35327487, -158.02479924)",2017-06-10 06:53:05,2017-06-14 09:12:45,"Vehicle",353980s (~4.1 days),0.585284391534391,910,21.35327487,-158.02479924,"HI",910,1,1113.6064,NA,"AggieReverseGeocoder",NA,4.01,"91-1030 AEAE ST","Ewa Beach","HI",96706,NA,362782,"Leeward",551200,"500k+"
"81",360101,"Vehicle","Closed","Vehicle had an Abandoned yellow slip on it, but someone has removed it.","06/10/2017 06:52:31 AM","06/14/2017 09:34:27 AM","(21.35327487, -158.02479924)",2017-06-10 06:52:31,2017-06-14 09:34:27,"Vehicle",355316s (~4.11 days),0.587493386243386,1409,21.35327487,-158.02479924,"HI",1409,1,0,NA,"AggieReverseGeocoder",NA,4.01,"91-1030 AEAE ST","Ewa Beach","HI",96706,NA,362782,"Leeward",551200,"500k+"
"82",357800,"Vehicle","Closed","See above please","06/04/2017 05:14:25 PM","06/05/2017 02:49:21 PM","(21.288651, -157.710266)",2017-06-04 17:14:25,2017-06-05 14:49:21,"Vehicle",77696s (~21.58 hours),0.128465608465608,424,21.288651,-157.710266,"HI",424,1,623.8936,NA,"AggieReverseGeocoder",NA,4.01,"546 Kumukahi Pl","East Honolulu","HI",96825,1106,39052033,"EastHNL",959800,"900k+"
"83",354183,"Vehicle","Closed","White Ford mini van looks abandoned.","05/24/2017 05:40:15 PM","05/25/2017 09:35:49 AM","(21.273796, -157.796692)",2017-05-24 17:40:15,2017-05-25 09:35:49,"Vehicle",57334s (~15.93 hours),0.0947982804232804,433,21.273796,-157.796692,"HI",433,1,565.4427,NA,"AggieReverseGeocoder",NA,4.01,"815  17th Ave","Urban Honolulu","HI",96816,4103,32052026,"UrbanHNL",683000,"600k+"
"84",353090,"Vehicle","Closed","Abandoned Vehicle Lic#GXD962 Plates expired Nov 2014. Parked for over 48 hours in front of my house.","05/22/2017 08:25:05 AM","05/22/2017 02:04:59 PM","(21.4145268, -157.7522673)",2017-05-22 08:25:05,2017-05-22 14:04:59,"Vehicle",20394s (~5.66 hours),0.0337202380952381,1159,21.4145268,-157.7522673,"HI",1159,1,46.8948,NA,"AggieReverseGeocoder",NA,4.01,"534 Iliaina St","Waimanalo","HI",96734,1811,44031047,"Windward",604900,"600k+"
"85",350493,"Vehicle","Closed","Beige Ford Explorer and white Ford pickup abandoned","05/14/2017 04:03:09 PM","05/15/2017 11:47:28 AM","(21.479818, -158.226257)",2017-05-14 16:03:09,2017-05-15 11:47:28,"Vehicle",71059s (~19.74 hours),0.117491732804233,131,21.479818,-158.226257,"HI",131,1,843.7126,NA,"AggieReverseGeocoder",NA,4.01,"84-258 HOLT ST","Waianae","HI",96792,NA,263455,"Leeward",375100,"300k+"
"86",346255,"Vehicle","Closed","Silver Acura","05/01/2017 04:29:32 PM","05/02/2017 08:51:59 AM","(21.4051484, -158.1630101)",2017-05-01 16:29:32,2017-05-02 08:51:59,"Vehicle",58947s (~16.37 hours),0.0974652777777778,1532,21.4051484,-158.1630101,"HI",1532,1,1183.0268,NA,"AggieReverseGeocoder",NA,4.01,"87-1018 AHEKAI ST","Waianae","HI",96792,NA,116930,"Leeward",375100,"300k+"
"87",345694,"Tree","Closed","Piles of dried leaves to be removed from area. Making area stink.","04/29/2017 05:19:38 PM","02/27/2018 02:42:46 PM","(21.31534579, -157.86125814)",2017-04-29 17:19:38,2018-02-27 14:42:46,"Tree",26256188s (~43.41 weeks),43.4130092592593,1551,21.31534579,-157.86125814,"HI",1551,1,375.0193,NA,"AggieReverseGeocoder",NA,4.01,"1226 College Walk","Urban Honolulu","HI",96817,3946,17026010,"UrbanHNL",683000,"600k+"
"88",345632,"Vehicle","Closed","Not moved","04/29/2017 09:28:17 AM","05/01/2017 09:36:34 AM","(21.288092, -157.819473)",2017-04-29 09:28:17,2017-05-01 09:36:34,"Vehicle",173297s (~2.01 days),0.286536044973545,432,21.288092,-157.819473,"HI",432,1,765.6455,NA,"AggieReverseGeocoder",NA,4.01,"823 Waiaka Pl","Urban Honolulu","HI",96826,3455,27027018,"UrbanHNL",683000,"600k+"
"89",345535,"Tree","Closed","Newly planted tree is falling over","04/28/2017 08:14:14 PM","02/27/2018 02:42:49 PM","(21.269348, -157.802338)",2017-04-28 20:14:14,2018-02-27 14:42:49,"Tree",26332115s (~43.54 weeks),43.5385499338624,656,21.269348,-157.802338,"HI",656,1,1218.8052,NA,"AggieReverseGeocoder",NA,4.01,"510  18th Ave","Urban Honolulu","HI",96815,4442,31042020,"UrbanHNL",683000,"600k+"
"90",345416,"Trash","Closed","This is the same place reported a few weeks ago and it has only gotten worse with more mattresses blocking sidewalk now.","04/28/2017 07:52:27 AM","02/27/2018 02:28:33 PM","(21.289412974, -157.831065117)",2017-04-28 07:52:27,2018-02-27 14:28:33,"Trash",26375766s (~43.61 weeks),43.6107242063492,581,21.289412974,-157.831065117,"HI",581,1,796.8996,NA,"AggieReverseGeocoder",NA,4.01,"2048 Kapiolani Blvd","Urban Honolulu","HI",96826,3960,27003064,"UrbanHNL",683000,"600k+"
"91",345308,"Pothole","Closed","Pot hole","04/28/2017 12:50:51 AM","02/27/2018 02:28:34 PM","(21.299507, -157.861847)",2017-04-28 00:50:51,2018-02-27 14:28:34,"RoadSafety",26401063s (~43.65 weeks),43.6525512566138,1425,21.299507,-157.861847,"HI",1425,1,937.4917,NA,"AggieReverseGeocoder",NA,4.01,"628 Auahi St","Urban Honolulu","HI",96813,5002,21054025,"UrbanHNL",683000,"600k+"
"92",344974,"Light","Closed","City called to report light fixed and it is not, see earlier report I submitted","04/26/2017 09:58:03 PM","02/27/2018 02:28:36 PM","(21.312176, -157.8015782)",2017-04-26 21:58:03,2018-02-27 14:28:36,"RoadSafety",26497833s (~43.81 weeks),43.8125545634921,58,21.312176,-157.8015782,"HI",58,1,410.4635,NA,"AggieReverseGeocoder",NA,4.01,"3050 Puhala Rise","Urban Honolulu","HI",96822,1461,29040004,"UrbanHNL",683000,"600k+"
"93",344230,"Trash","Closed","Extreme homeless trash, including bottles.","04/24/2017 03:29:47 PM","02/27/2018 02:28:45 PM","(21.277035124, -157.814516113)",2017-04-24 15:29:47,2018-02-27 14:28:45,"Trash",26693938s (~44.14 weeks),44.1368022486772,1545,21.277035124,-157.814516113,"HI",1545,1,1042.2103,NA,"AggieReverseGeocoder",NA,4.01,"2725 Date St","Urban Honolulu","HI",96815,1087,27036002,"UrbanHNL",683000,"600k+"
"94",344135,"Vehicle","Closed","Parked illegally with registration and safety expired.  Vehicle has been reported prior and citations given but still hasn't moved.","04/24/2017 10:31:05 AM","04/24/2017 11:41:00 AM","(21.320143, -158.017166)",2017-04-24 10:31:05,2017-04-24 11:41:00,"Vehicle",4195s (~1.17 hours),0.00693617724867725,175,21.320143,-158.017166,"HI",175,1,1335.6143,NA,"AggieReverseGeocoder",NA,4.01,"91-1038 KAIHEENALU ST","Ewa Beach","HI",96706,NA,297614,"Leeward",551200,"500k+"
"95",343829,"Pothole","Closed","Our street was just repaved.  This 1435 Akeke property just did something with their water lines and they cut a big hole in road.  After the heavy rains these past days, the hole has sunken in creating a very dangerous pot hole.","04/23/2017 04:47:15 PM","02/27/2018 02:25:52 PM","(21.372002, -157.739227)",2017-04-23 16:47:15,2018-02-27 14:25:52,"RoadSafety",26775517s (~44.27 weeks),44.2716881613757,819,21.372002,-157.739227,"HI",819,1,427.4319,NA,"AggieReverseGeocoder",NA,4.01,"1433 Akeke Pl","Waimanalo","HI",96734,4276,42087026,"Windward",604900,"600k+"
"96",343096,"Vehicle","Closed","Fadded red Dodge Neon","04/20/2017 01:29:18 PM","04/20/2017 01:52:50 PM","(21.309202, -157.818283)",2017-04-20 13:29:18,2017-04-20 13:52:50,"Vehicle",1412s (~23.53 minutes),0.00233465608465608,111,21.309202,-157.818283,"HI",111,1,1218.8063,NA,"AggieReverseGeocoder",NA,4.01,"2625 Kuahine Dr","Urban Honolulu","HI",96822,1720,29010020,"UrbanHNL",683000,"600k+"
"97",341843,"Vehicle","Closed","Parked for several weeks in the same location.","04/17/2017 09:20:52 AM","04/17/2017 02:04:00 PM","(21.307983, -157.843246)",2017-04-17 09:20:52,2017-04-17 14:04:00,"Vehicle",16988s (~4.72 hours),0.0280886243386243,857,21.307983,-157.843246,"HI",857,1,937.5725,NA,"AggieReverseGeocoder",NA,4.01,"1015 Wilder Ave","Urban Honolulu","HI",96822,2600,24016015,"UrbanHNL",683000,"600k+"
"98",341630,"Vehicle","Closed","Toyota Camry XLE, fair condition","04/16/2017 02:14:12 PM","04/17/2017 01:46:52 PM","(21.282799, -157.792984)",2017-04-16 14:14:12,2017-04-17 13:46:52,"Vehicle",84760s (~23.54 hours),0.140145502645503,1708,21.282799,-157.792984,"HI",1708,1,251.1617,NA,"AggieReverseGeocoder",NA,4.01,"1336  16th Ave","Urban Honolulu","HI",96816,4347,33010003,"UrbanHNL",683000,"600k+"
"99",341616,"Vehicle","Closed","abandoned vehicle","04/16/2017 12:58:42 PM","04/17/2017 12:20:16 PM","(21.363424, -158.078217)",2017-04-16 12:58:42,2017-04-17 12:20:16,"Vehicle",84094s (~23.36 hours),0.139044312169312,996,21.363424,-158.078217,"HI",996,1,1062.4641,NA,"AggieReverseGeocoder",NA,4.01,"92-6083 NEMO ST","Kapolei","HI",96707,NA,54172,"Leeward",570800,"500k+"
"100",341408,"Light","Closed","Street light flickers off and on","04/15/2017 07:08:01 AM","02/27/2018 02:19:48 PM","(21.368698, -157.76889)",2017-04-15 07:08:01,2018-02-27 14:19:48,"RoadSafety",27501107s (~45.47 weeks),45.4714070767196,1087,21.368698,-157.76889,"HI",1087,1,156.2479,NA,"AggieReverseGeocoder",NA,4.01,"958 Lunahelu St","Waimanalo","HI",96734,4613,42072061,"Windward",604900,"600k+"
"101",341289,"Vehicle","Closed","VW Jetta 18T","04/14/2017 12:46:06 PM","04/17/2017 10:29:43 AM","(21.357117, -158.026581)",2017-04-14 12:46:06,2017-04-17 10:29:43,"Vehicle",251017s (~2.91 days),0.415041335978836,1476,21.357117,-158.026581,"HI",1476,1,953.1352,NA,"AggieReverseGeocoder",NA,4.01,"91-1023 MAKAALOA ST","Ewa Beach","HI",96706,NA,129249,"Leeward",551200,"500k+"
"102",341049,"Light","Closed","At 10:20pm this evening entire light post fell and shattered in the street across from our house. No apparent cause.  Called Hawaiian Electric and supposed to send someone.","04/13/2017 11:20:00 PM","02/27/2018 02:19:55 PM","(21.304169, -157.819397)",2017-04-13 23:20:00,2018-02-27 14:19:55,"RoadSafety",27615595s (~45.66 weeks),45.6607060185185,600,21.304169,-157.819397,"HI",600,1,296.9268,NA,"AggieReverseGeocoder",NA,4.01,"2312 Kaala St","Urban Honolulu","HI",96822,2201,29005012,"UrbanHNL",683000,"600k+"
"103",340972,"Vehicle","Closed","Dirty white truck with bird poop all over!","04/13/2017 01:17:15 PM","04/13/2017 02:10:46 PM","(21.31438386, -158.01811955)",2017-04-13 13:17:15,2017-04-13 14:10:46,"Vehicle",3211s (~53.52 minutes),0.00530919312169312,1170,21.31438386,-158.01811955,"HI",1170,1,874.9729,NA,"AggieReverseGeocoder",NA,4.01,"91-1160 KAIMALIE ST","Ewa Beach","HI",96706,NA,432673,"Leeward",551200,"500k+"
"104",340457,"Trash","Closed","I reported this mess last week and want you to know that bulk pickup picked up most of this on Monday. I picked up the the little stuff today as well as the huge cardboard that was dumped today.","04/12/2017 10:04:01 AM","02/27/2018 02:18:33 PM","(21.2771223, -157.8221994)",2017-04-12 10:04:01,2018-02-27 14:18:33,"Trash",27749672s (~45.88 weeks),45.8823941798942,1585,21.2771223,-157.8221994,"HI",1585,1,296.8712,NA,"AggieReverseGeocoder",NA,4.01,"250 Kapili St","Urban Honolulu","HI",96815,3164,26024063,"UrbanHNL",683000,"600k+"
"105",340252,"Vehicle","Closed","Expired safety. Been here for over a week. This week plates gone.","04/11/2017 05:07:35 PM","04/12/2017 11:18:58 AM","(21.289261, -157.829086)",2017-04-11 17:07:35,2017-04-12 11:18:58,"Vehicle",65483s (~18.19 hours),0.108272156084656,1133,21.289261,-157.829086,"HI",1133,1,981.3086,NA,"AggieReverseGeocoder",NA,4.01,"2218 Lime St","Urban Honolulu","HI",96826,4204,27005057,"UrbanHNL",683000,"600k+"
"106",339362,"Flooding","Closed","Sprinkler facing street","04/09/2017 07:28:23 AM","02/27/2018 02:17:15 PM","(21.276123, -157.790619)",2017-04-09 07:28:23,2018-02-27 14:17:15,"Water",28018132s (~46.33 weeks),46.3262764550265,533,21.276123,-157.790619,"HI",533,1,203.1112,NA,"AggieReverseGeocoder",NA,4.01,"4115 Harding Ave","Urban Honolulu","HI",96816,4602,32046015,"UrbanHNL",683000,"600k+"
"107",339273,"Broken / Vandalized signs","Closed","Vandalized sign","04/08/2017 05:08:15 PM","02/27/2018 02:17:19 PM","(21.310503, -157.861481)",2017-04-08 17:08:15,2018-02-27 14:17:19,"RoadSafety",28069744s (~46.41 weeks),46.4116137566138,213,21.310503,-157.861481,"HI",213,1,343.7408,NA,"AggieReverseGeocoder",NA,4.01,"52 S Hotel St","Urban Honolulu","HI",96813,3106,21003013,"UrbanHNL",683000,"600k+"
"108",339260,"Broken / Vandalized signs","Closed","Vandalized sign","04/08/2017 04:47:33 PM","02/27/2018 02:15:57 PM","(21.31139, -157.860336)",2017-04-08 16:47:33,2018-02-27 14:15:57,"RoadSafety",28070904s (~46.41 weeks),46.4135317460317,768,21.31139,-157.860336,"HI",768,1,921.8832,NA,"AggieReverseGeocoder",NA,4.01,"1161 Bethel St","Urban Honolulu","HI",96813,2203,21003004,"UrbanHNL",683000,"600k+"
"109",339240,"Trash","Closed","Chairs and broken desk dumped","04/08/2017 04:23:01 PM","02/27/2018 02:16:09 PM","(21.310368, -157.861969)",2017-04-08 16:23:01,2018-02-27 14:16:09,"Trash",28072388s (~46.42 weeks),46.4159854497355,456,21.310368,-157.861969,"HI",456,1,1276.8487,NA,"AggieReverseGeocoder",NA,4.01,"1031 Nuuanu Ave","Urban Honolulu","HI",96813,5601,21002038,"UrbanHNL",683000,"600k+"
"110",338841,"Trash","Closed","Vagrants have locked tarp-covered carts and other bulky items to a chain-link fence on Ala Wai Blvd at Ainakea Way.  This fence is the perimeter fence at Jefferson Elementary School and these items are an attractive nuisance.","04/07/2017 07:46:12 AM","02/27/2018 02:15:09 PM","(21.274996, -157.818954)",2017-04-07 07:46:12,2018-02-27 14:15:09,"Trash",28189737s (~46.61 weeks),46.6100148809524,435,21.274996,-157.818954,"HI",435,1,458.8787,NA,"AggieReverseGeocoder",NA,4.01,"311 Wai Nani Way","Urban Honolulu","HI",96815,3962,26028016,"UrbanHNL",683000,"600k+"
"111",338809,"Pothole","Closed","Pot hole","04/07/2017 06:59:40 AM","02/27/2018 02:15:12 PM","(21.266922, -157.799057)",2017-04-07 06:59:40,2018-02-27 14:15:12,"RoadSafety",28192532s (~46.61 weeks),46.6146362433862,979,21.266922,-157.799057,"HI",979,1,343.7573,NA,"AggieReverseGeocoder",NA,4.01,"505  18th Ave","Urban Honolulu","HI",96816,4443,31042012,"UrbanHNL",683000,"600k+"
"112",337658,"Vehicle","Closed","Dark grey 4-door sedan, has not been moved in over a month!","04/04/2017 10:59:05 AM","04/13/2017 09:59:01 AM","(21.31424, -158.019043)",2017-04-04 10:59:05,2017-04-13 09:59:01,"Vehicle",773996s (~1.28 weeks),1.27975529100529,1651,21.31424,-158.019043,"HI",1651,1,1167.7987,NA,"AggieReverseGeocoder",NA,4.01,"91-1220 KAIOPUA ST","Ewa Beach","HI",96706,NA,6766,"Leeward",551200,"500k+"
"113",337094,"Vehicle","Closed","Been here 2 weeks","04/03/2017 08:02:14 AM","04/13/2017 09:52:28 AM","(21.304962, -157.84082)",2017-04-03 08:02:14,2017-04-13 09:52:28,"Vehicle",870614s (~1.44 weeks),1.43950727513228,6,21.304962,-157.84082,"HI",6,1,750.0222,NA,"AggieReverseGeocoder",NA,4.01,"1452 Liholiho St","Urban Honolulu","HI",96822,4181,24020046,"UrbanHNL",683000,"600k+"
"114",336881,"Broken / Vandalized signs","Closed","Nonparkin down rusted and broke during winds. Now many cars parked in area.","04/02/2017 08:38:28 PM","02/27/2018 02:12:02 PM","(21.305737, -157.831039)",2017-04-02 20:38:28,2018-02-27 14:12:02,"RoadSafety",28575214s (~47.25 weeks),47.2473776455026,603,21.305737,-157.831039,"HI",603,1,1171.866,NA,"AggieReverseGeocoder",NA,4.01,"1537 Nehoa St","Urban Honolulu","HI",96822,2014,24023014,"UrbanHNL",683000,"600k+"
"115",336786,"Trash","Closed","Persistent illegal dumping at corner of Frog Lane and Puuhue Place","04/02/2017 11:16:00 AM","02/27/2018 02:12:04 PM","(21.320534, -157.857544)",2017-04-02 11:16:00,2018-02-27 14:12:04,"Trash",28608964s (~47.3 weeks),47.3031812169312,1079,21.320534,-157.857544,"HI",1079,1,1163.6511,NA,"AggieReverseGeocoder",NA,4.01,"1645 Frog Ln","Urban Honolulu","HI",96817,3125,17019015,"UrbanHNL",683000,"600k+"
"116",335325,"Light","Closed","Light not functioning correctly.  Works intermittantly","03/28/2017 08:39:49 PM","02/27/2018 02:11:30 PM","(21.36911, -158.090729)",2017-03-28 20:39:49,2018-02-27 14:11:30,"RoadSafety",29007101s (~47.96 weeks),47.961476521164,1021,21.36911,-158.090729,"HI",1021,1,608.2483,NA,"AggieReverseGeocoder",NA,4.01,"92-5085 LIMUKELE ST","Kapolei","HI",96707,NA,178157,"Leeward",570800,"500k+"
"117",334892,"Vehicle","Closed","White doors & trunklid.","03/27/2017 05:24:31 PM","03/28/2017 03:37:15 PM","(21.422394, -157.803329)",2017-03-27 17:24:31,2017-03-28 15:37:15,"Vehicle",79964s (~22.21 hours),0.132215608465608,242,21.422394,-157.803329,"HI",242,1,875.0609,NA,"AggieReverseGeocoder",NA,4.01,"46-255 LILIPUNA RD","Kaneohe","HI",96744,NA,108136,"Windward",770700,"700k+"
"118",334060,"Light","Closed","Light goes on and off and appears to be burned.","03/24/2017 03:31:22 PM","02/27/2018 02:04:06 PM","(21.277481, -157.810257)",2017-03-24 15:31:22,2018-02-27 14:04:06,"RoadSafety",29370764s (~48.56 weeks),48.5627711640212,19,21.277481,-157.810257,"HI",19,1,343.7943,NA,"AggieReverseGeocoder",NA,4.01,"3334 Castle St","Urban Honolulu","HI",96815,3831,31006080,"UrbanHNL",683000,"600k+"
"119",333644,"Homeless","Closed","Homeless moving in with unattended dogs and unleashed","03/23/2017 10:41:23 AM","04/12/2017 01:55:56 PM","(21.256538, -157.815018)",2017-03-23 10:41:23,2017-04-12 13:55:56,"Homeless",1739673s (~2.88 weeks),2.87644345238095,1152,21.256538,-157.815018,"HI",1152,1,187.5008,NA,"AggieReverseGeocoder",NA,4.01,"3187 Diamond Head Rd","Urban Honolulu","HI",96815,4719,31036001,"UrbanHNL",683000,"600k+"
"120",333418,"Light","Closed","Broken street light along Kal Hwy probably HDOT","03/22/2017 08:08:25 PM","03/23/2017 10:48:00 AM","(21.275864, -157.764938)",2017-03-22 20:08:25,2017-03-23 10:48:00,"RoadSafety",52775s (~14.66 hours),0.0872602513227513,1220,21.275864,-157.764938,"HI",1220,1,953.1756,NA,"AggieReverseGeocoder",NA,4.01,"4921 Kalanianaole Hwy","Urban Honolulu","HI",96821,1558,35022016,"UrbanHNL",683000,"600k+"
"121",333226,"Vehicle","Closed","White Ford Van","03/22/2017 10:30:36 AM","03/23/2017 12:16:05 PM","(21.281815, -157.750854)",2017-03-22 10:30:36,2017-03-23 12:16:05,"Vehicle",92729s (~1.07 days),0.153321759259259,447,21.281815,-157.750854,"HI",447,1,953.1291,NA,"AggieReverseGeocoder",NA,4.01,"5304 Limu Pl","Urban Honolulu","HI",96821,1940,36006059,"UrbanHNL",683000,"600k+"
"122",332578,"Trash","Closed","Mattresses on sidewalk.","03/20/2017 11:55:15 AM","02/27/2018 02:02:25 PM","(21.284740619, -157.830589648)",2017-03-20 11:55:15,2018-02-27 14:02:25,"Trash",29729230s (~49.16 weeks),49.1554728835979,1712,21.284740619,-157.830589648,"HI",1712,1,923.5035,NA,"AggieReverseGeocoder",NA,4.01,"436 Namahana St","Urban Honolulu","HI",96815,2182,26015015,"UrbanHNL",683000,"600k+"
"123",332565,"Tree","Closed","Grass is overgrown along canal. There are also rats running around. The whole length of the canal both sides need cutting.","03/20/2017 11:24:51 AM","02/27/2018 02:02:26 PM","(21.321600087, -157.875390132)",2017-03-20 11:24:51,2018-02-27 14:02:26,"Tree",29731055s (~49.16 weeks),49.1584904100529,44,21.321600087,-157.875390132,"HI",44,1,187.4989,NA,"AggieReverseGeocoder",NA,4.01,"1199 Dillingham Blvd","Urban Honolulu","HI",96817,4440,15020002,"UrbanHNL",683000,"600k+"
"124",331876,"Trash","Closed","Hi guys it looks like somebody took off the vines on the wall of Kona not Koa Park! Now it looks like just a pile of leaves just left there! Maybe they can be swept up?Thanks guys","03/17/2017 06:55:00 PM","02/27/2018 02:00:41 PM","(21.32058, -157.852539)",2017-03-17 18:55:00,2018-02-27 14:00:41,"Trash",29963141s (~49.54 weeks),49.542230489418,248,21.32058,-157.852539,"HI",248,1,187.3146,NA,"AggieReverseGeocoder",NA,4.01,"1848 Nuuanu Ave","Urban Honolulu","HI",96817,2426,17011029,"UrbanHNL",683000,"600k+"
"125",331856,"Vehicle","Closed","Abandoned  vehicle","03/17/2017 03:07:11 PM","03/21/2017 03:54:59 PM","(21.417007, -157.792786)",2017-03-17 15:07:11,2017-03-21 15:54:59,"Vehicle",348468s (~4.03 days),0.576170634920635,1480,21.417007,-157.792786,"HI",1480,1,1453.1022,NA,"AggieReverseGeocoder",NA,4.01,"45-109 WAIKAPOKI RD","Kaneohe","HI",96744,NA,392841,"Windward",770700,"700k+"
"126",331638,"Light","Closed","Broken street light as you leave long's shopping center from Town and Pump Liquor exit","03/16/2017 10:16:06 PM","02/27/2018 02:00:48 PM","(21.286139, -157.706757)",2017-03-16 22:16:06,2018-02-27 14:00:48,"RoadSafety",30037482s (~49.67 weeks),49.6651488095238,1008,21.286139,-157.706757,"HI",1008,1,640.9599,NA,"AggieReverseGeocoder",NA,4.01,"379 Ainahou St","East Honolulu","HI",96825,1510,39068125,"EastHNL",959800,"900k+"
"127",331633,"Light","Closed","Broken street light on the Costco side of the bridge","03/16/2017 09:55:42 PM","02/27/2018 01:59:49 PM","(21.285156, -157.709213)",2017-03-16 21:55:42,2018-02-27 13:59:49,"RoadSafety",30038647s (~49.67 weeks),49.6670750661376,1209,21.285156,-157.709213,"HI",1209,1,624.9704,NA,"AggieReverseGeocoder",NA,4.01,"321 Ainahou St","East Honolulu","HI",96825,1527,39068143,"EastHNL",959800,"900k+"
"128",331151,"Tree","Closed","Grass overgrown at old sugarmill which is now used by HPD on Renton road. Please cut as soon as possible.","03/15/2017 09:52:18 AM","02/27/2018 01:59:20 PM","(21.339852058, -158.036714963)",2017-03-15 09:52:18,2018-02-27 13:59:20,"Tree",30168422s (~49.88 weeks),49.8816501322751,747,21.339852058,-158.036714963,"HI",747,1,1625.7187,NA,"AggieReverseGeocoder",NA,4.01,"91-1161 ALANUI MAUKA ST","Ewa Beach","HI",96706,NA,589902,"Leeward",551200,"500k+"
"129",330949,"Light","Closed","Broken street light","03/14/2017 07:15:19 PM","02/27/2018 01:59:25 PM","(21.268997, -157.707626)",2017-03-14 19:15:19,2018-02-27 13:59:25,"RoadSafety",30221046s (~49.97 weeks),49.9686607142857,1348,21.268997,-157.707626,"HI",1348,1,156.2992,NA,"AggieReverseGeocoder",NA,4.01,"497 Portlock Rd","East Honolulu","HI",96825,2025,39016035,"EastHNL",959800,"900k+"
"130",330942,"Trash","Closed","Heavy trash dumping since March 12, 2017. It is now overflowing into the street and pick up not until the 5th of each month. Please police area, post signs and educate the public and police department. Doing nothing is not a solution as has already been","03/14/2017 06:11:56 PM","02/27/2018 01:59:25 PM","(21.356339, -158.084518)",2017-03-14 18:11:56,2018-02-27 13:59:25,"Trash",30224849s (~49.97 weeks),49.9749487433862,1679,21.356339,-158.084518,"HI",1679,1,859.4017,NA,"AggieReverseGeocoder",NA,4.01,"92-1140 PANANA ST","Kapolei","HI",96707,NA,414197,"Leeward",570800,"500k+"
"131",330931,"Trash","Closed","Between 2311 and 2307--collection of old fluorescent light fixtures(?) discarded outside well before bulk pick-up date.","03/14/2017 05:44:44 PM","02/27/2018 01:58:32 PM","(21.288803, -157.828262)",2017-03-14 17:44:44,2018-02-27 13:58:32,"Trash",30226428s (~49.98 weeks),49.9775595238095,729,21.288803,-157.828262,"HI",729,1,361.7176,NA,"AggieReverseGeocoder",NA,4.01,"2311 Lime St","Urban Honolulu","HI",96826,4208,27005040,"UrbanHNL",683000,"600k+"
"132",330930,"Trash","Closed","Small collection of bulk items discarded outside before bulk pick-up date including dorm-sized refrigerator.","03/14/2017 05:42:35 PM","02/27/2018 01:58:33 PM","(21.288681, -157.828217)",2017-03-14 17:42:35,2018-02-27 13:58:33,"Trash",30226558s (~49.98 weeks),49.9777744708995,883,21.288681,-157.828217,"HI",883,1,171.8802,NA,"AggieReverseGeocoder",NA,4.01,"2311 Lime St","Urban Honolulu","HI",96826,4208,27005040,"UrbanHNL",683000,"600k+"
"133",330929,"Trash","Closed","Microwave discarded off sidewalk well before bulk pick-up date.","03/14/2017 05:37:07 PM","02/27/2018 01:58:33 PM","(21.289396, -157.826599)",2017-03-14 17:37:07,2018-02-27 13:58:33,"Trash",30226886s (~49.98 weeks),49.9783167989418,1023,21.289396,-157.826599,"HI",1023,1,374.9954,NA,"AggieReverseGeocoder",NA,4.01,"644 Coolidge St","Urban Honolulu","HI",96826,4523,27012026,"UrbanHNL",683000,"600k+"
"134",330394,"Trash","Closed","Illegal Panana St dumping on 3/13/17 in photo. Pule grows daily.","03/13/2017 09:19:49 AM","02/27/2018 01:58:43 PM","(21.356367, -158.084824)",2017-03-13 09:19:49,2018-02-27 13:58:43,"Trash",30343134s (~50.17 weeks),50.1705257936508,826,21.356367,-158.084824,"HI",826,1,1157.1008,NA,"AggieReverseGeocoder",NA,4.01,"92-1140 PANANA ST","Kapolei","HI",96707,NA,414197,"Leeward",570800,"500k+"
"135",329647,"Light","Closed","Last of burnt out lights on wailua road bridge","03/09/2017 09:48:41 PM","02/16/2018 03:29:57 PM","(21.288664, -157.700607)",2017-03-09 21:48:41,2018-02-16 15:29:57,"RoadSafety",29698876s (~49.11 weeks),49.1052843915344,1455,21.288664,-157.700607,"HI",1455,1,421.8618,NA,"AggieReverseGeocoder",NA,4.01,"7079 Ehu Wai Pl","East Honolulu","HI",96825,3117,39095003,"EastHNL",959800,"900k+"
"136",328753,"Pothole","Closed","Huge pothole","03/07/2017 09:39:18 AM","02/16/2018 03:26:58 PM","(21.29138, -157.83844)",2017-03-07 09:39:18,2018-02-16 15:26:58,"RoadSafety",29915260s (~49.46 weeks),49.4630621693122,1656,21.29138,-157.83844,"HI",1656,1,624.9899,NA,"AggieReverseGeocoder",NA,4.01,"1680 Kapiolani Blvd","Urban Honolulu","HI",96814,3794,23022004,"UrbanHNL",683000,"600k+"
"137",328122,"Trash","Closed","Large Bookcase and several baby car seats discarded outside well before bulk pick-up date.","03/05/2017 07:34:50 PM","02/16/2018 03:24:36 PM","(21.290535, -157.823029)",2017-03-05 19:34:50,2018-02-16 15:24:36,"Trash",30052186s (~49.69 weeks),49.689460978836,663,21.290535,-157.823029,"HI",663,1,921.8754,NA,"AggieReverseGeocoder",NA,4.01,"845 University Ave","Urban Honolulu","HI",96826,3158,27016019,"UrbanHNL",683000,"600k+"
"138",327735,"Trash","Closed","Large white mattress left on water side of the Ala Wai on the corner of Ohua.","03/03/2017 06:36:34 PM","02/16/2018 03:23:38 PM","(21.282776, -157.827118)",2017-03-03 18:36:34,2018-02-16 15:23:38,"Trash",30228424s (~49.98 weeks),49.9808597883598,736,21.282776,-157.827118,"HI",736,1,437.9823,NA,"AggieReverseGeocoder",NA,4.01,"455 Lewers St","Urban Honolulu","HI",96815,2455,26020035,"UrbanHNL",683000,"600k+"
"139",327734,"Stormwater","Closed","Tree in the ala wai. I dunno if it's the water way complaint or tree?","03/03/2017 06:35:38 PM","03/10/2017 10:25:16 AM","(21.287823, -157.839966)",2017-03-03 18:35:38,2017-03-10 10:25:16,"Water",575378s (~6.66 days),0.951352513227513,420,21.287823,-157.839966,"HI",420,1,812.5641,NA,"AggieReverseGeocoder",NA,4.01,"1660 Ala Moana Blvd","Urban Honolulu","HI",96815,1460,26011023,"UrbanHNL",683000,"600k+"
"140",326635,"Light","Closed","On Feb 5th I sent in a complaint abt a street light that needs to be picked up. Yesterday I get a call from Danelle saying it had been picked up. It was indeed picked and moved 25 feet away. Can someone really come by and dispose of it? Someone cld easy","02/28/2017 02:48:47 PM","02/16/2018 03:22:41 PM","(21.294113, -157.822357)",2017-02-28 14:48:47,2018-02-16 15:22:41,"RoadSafety",30501234s (~50.43 weeks),50.4319345238095,1527,21.294113,-157.822357,"HI",1527,1,437.5056,NA,"AggieReverseGeocoder",NA,4.01,"1212 University Ave","Urban Honolulu","HI",96826,1534,28006017,"UrbanHNL",683000,"600k+"
"141",326239,"Trash","Closed","We took away 650lbs in 2 pickups but cannot move the rest of the items.  Please coordinate remval of appliances and abandoned trailer/boat.","02/27/2017 12:15:23 PM","02/16/2018 03:22:45 PM","(21.39245502, -157.76441504)",2017-02-27 12:15:23,2018-02-16 15:22:45,"Trash",30596842s (~50.59 weeks),50.5900165343915,1474,21.39245502,-157.76441504,"HI",1474,1,687.4965,NA,"AggieReverseGeocoder",NA,4.01,"913 Kalanianaole Hwy","Waimanalo","HI",96734,4600,42015005,"Windward",604900,"600k+"
"142",325296,"Vehicle","Closed","Possible abandoned vehicle:White Chevy truck license 056TVN has been parked for several weeks on Hawaii Kai Drive opposite 6841.","02/23/2017 05:33:45 PM","02/24/2017 08:57:55 AM","(21.288794, -157.706818)",2017-02-23 17:33:45,2017-02-24 08:57:55,"Vehicle",55450s (~15.4 hours),0.0916832010582011,1428,21.288794,-157.706818,"HI",1428,1,687.4911,NA,"AggieReverseGeocoder",NA,4.01,"6800 Hawaii Kai Dr","East Honolulu","HI",96825,1505,39008005,"EastHNL",959800,"900k+"
"143",324120,"Broken / Vandalized signs","Closed","Punawainui St sign gone at Makakilo Drive","02/20/2017 09:18:20 AM","02/16/2018 03:18:08 PM","(21.366152, -158.079117)",2017-02-20 09:18:20,2018-02-16 15:18:08,"RoadSafety",31211988s (~51.61 weeks),51.607123015873,1593,21.366152,-158.079117,"HI",1593,1,578.1228,NA,"AggieReverseGeocoder",NA,4.01,"92-1357 PUNAWAINUI ST","Kapolei","HI",96707,NA,73465,"Leeward",570800,"500k+"
"144",321723,"Broken / Vandalized signs","Closed","On 2/10/17, a City bus struck the Stop sign at the parking lot exit. The driver reported it to his transit supervisor and 3 HPD officers also arrived. The sign is at an approx angle of 60 degrees. It needs to be straightened. The post is solid and poses","02/11/2017 11:18:02 AM","02/16/2018 02:07:32 PM","(21.270344, -157.803162)",2017-02-11 11:18:02,2018-02-16 14:07:32,"RoadSafety",31978170s (~1.01 years),52.8739583333333,1392,21.270344,-157.803162,"HI",1392,1,1218.7631,NA,"AggieReverseGeocoder",NA,4.01,"4303 Diamond Head Rd","Urban Honolulu","HI",96816,4421,31042009,"UrbanHNL",683000,"600k+"
"145",320848,"Broken / Vandalized signs","Closed","Do not wnter sign is knocked down.","02/07/2017 11:07:07 PM","02/08/2017 08:56:21 AM","(21.305645967, -157.862801883)",2017-02-07 23:07:07,2017-02-08 08:56:21,"RoadSafety",35354s (~9.82 hours),0.0584556878306878,1681,21.305645967,-157.862801883,"HI",1681,1,1578.1586,NA,"AggieReverseGeocoder",NA,4.01,"700 Richards St","Urban Honolulu","HI",96813,4605,21016015,"UrbanHNL",683000,"600k+"
"146",320819,"Light","Closed","Light is not working and homeowner had advised that it's dark and they have had theft occur at their home before and is concerned.","02/07/2017 03:20:39 PM","02/16/2018 01:47:59 PM","(21.3423729, -158.0372889)",2017-02-07 15:20:39,2018-02-16 13:47:59,"RoadSafety",32308040s (~1.02 years),53.4193783068783,1243,21.3423729,-158.0372889,"HI",1243,1,1796.8918,NA,"AggieReverseGeocoder",NA,4.01,"91-1188 BRYAN ST","Ewa Beach","HI",96706,NA,103425,"Leeward",551200,"500k+"
"147",320245,"Broken / Vandalized signs","Closed","Fallen sign post on McCully St, on approach to Beretania St. Diamondhead side.","02/05/2017 01:05:09 PM","02/16/2018 01:46:04 PM","(21.296356, -157.829773)",2017-02-05 13:05:09,2018-02-16 13:46:04,"RoadSafety",32488855s (~1.03 years),53.7183449074074,827,21.296356,-157.829773,"HI",827,1,984.5167,NA,"AggieReverseGeocoder",NA,4.01,"1124 Mccully St","Urban Honolulu","HI",96826,2205,28002054,"UrbanHNL",683000,"600k+"
"148",320101,"Vehicle","Closed","Camry","02/04/2017 10:56:43 AM","02/06/2017 08:48:37 AM","(21.31781, -158.021072)",2017-02-04 10:56:43,2017-02-06 08:48:37,"Vehicle",165114s (~1.91 days),0.273005952380952,1026,21.31781,-158.021072,"HI",1026,1,1843.7559,NA,"AggieReverseGeocoder",NA,4.01,"91-1073 KAIKO ST","Ewa Beach","HI",96706,NA,574991,"Leeward",551200,"500k+"
"149",319488,"Tree","Closed","The large tree and roots are cracking the sidewalk and asphalt. There are some pipes that lifted up as well but the neighbor put 2 slabs of cement to cover those exposed pipes as a temp fix.","02/02/2017 12:14:58 AM","02/16/2018 01:44:44 PM","(21.280083, -157.807846)",2017-02-02 00:14:58,2018-02-16 13:44:44,"Tree",32794186s (~1.04 years),54.2231911375661,240,21.280083,-157.807846,"HI",240,1,1156.3954,NA,"AggieReverseGeocoder",NA,4.01,"838 7th Ave","Urban Honolulu","HI",96816,2159,32020034,"UrbanHNL",683000,"600k+"
"150",318511,"Vehicle","Closed","Vehicle was tagged early last week. Vehicle has not yet moved. Please tow.","01/29/2017 08:35:00 PM","01/30/2017 10:25:03 AM","(21.26632443, -157.786978409)",2017-01-29 20:35:00,2017-01-30 10:25:03,"Vehicle",49803s (~13.83 hours),0.0823462301587302,1050,21.26632443,-157.786978409,"HI",1050,1,390.6799,NA,"AggieReverseGeocoder",NA,4.01,"658 Hunakai St","Urban Honolulu","HI",96816,4910,35033007,"UrbanHNL",683000,"600k+"
"151",318351,"Homeless","Closed","Extreme hording, 92-5022 limukele street Kapolei hi 96707, back yard photo. Inside every room is floor to ceiling. Rodents galore. Fire hazard.","01/28/2017 02:37:37 PM","02/16/2018 01:43:44 PM","(21.366501, -158.090103)",2017-01-28 14:37:37,2018-02-16 13:43:44,"Homeless",33174367s (~1.05 years),54.8517972883598,1739,21.366501,-158.090103,"HI",1739,1,911.8056,NA,"AggieReverseGeocoder",NA,4.01,"92-5018 LIMUKELE ST","Kapolei","HI",96707,NA,118149,"Leeward",570800,"500k+"
"152",318126,"Vehicle","Closed","White Chevy Camaro with long expired tags hasn't been moved for more than one month. Previously reported but car remains abandoned on street in front of my house.","01/27/2017 11:57:22 AM","01/30/2017 07:51:40 AM","(21.320786, -157.858047)",2017-01-27 11:57:22,2017-01-30 07:51:40,"Vehicle",244458s (~2.83 days),0.404196428571429,507,21.320786,-157.858047,"HI",507,1,351.9706,NA,"AggieReverseGeocoder",NA,4.01,"317 Puuhue Pl","Urban Honolulu","HI",96817,6215,17018062,"UrbanHNL",683000,"600k+"
"153",318100,"Trash","Closed","Sofa and mattress dumped","01/27/2017 11:01:50 AM","02/16/2018 01:43:47 PM","(21.34697, -157.820633)",2017-01-27 11:01:50,2018-02-16 13:43:47,"Trash",33273717s (~1.05 years),55.016066468254,743,21.34697,-157.820633,"HI",743,1,906.2587,NA,"AggieReverseGeocoder",NA,4.01,"4020 Nuuanu Pali Dr","Urban Honolulu","HI",96817,1059,19004031,"UrbanHNL",683000,"600k+"
"154",317987,"Light","Closed","Light is cycling on and off.","01/27/2017 06:02:47 AM","02/16/2018 01:42:22 PM","(21.422836, -157.81337)",2017-01-27 06:02:47,2018-02-16 13:42:22,"RoadSafety",33291575s (~1.05 years),55.0455935846561,679,21.422836,-157.81337,"HI",679,1,1609.3797,NA,"AggieReverseGeocoder",NA,4.01,"46-251 KALALI ST","Kaneohe","HI",96744,NA,631701,"Windward",770700,"700k+"
"155",307024,"Vehicle","Closed","All illegal... expired everything. in pic it shows 4 cars in a row. cant take pic of each car because its in between &amp; will not get a clear shot of each vehicle.","01/23/2017 12:36:09 PM","01/24/2017 02:12:47 PM","(21.38007772, -158.13864537)",2017-01-23 12:36:09,2017-01-24 14:12:47,"Vehicle",92198s (~1.07 days),0.152443783068783,1721,21.38007772,-158.13864537,"HI",1721,1,812.4889,NA,"AggieReverseGeocoder",NA,4.01,"89-345 MANO AVE","Waianae","HI",96792,NA,290350,"Leeward",375100,"300k+"
"156",306429,"Broken / Vandalized signs","Closed","Fallen sign at King St @ McCully St. Mauka side.","01/20/2017 10:12:37 PM","02/16/2018 01:41:41 PM","(21.295052, -157.830368)",2017-01-20 22:12:37,2018-02-16 13:41:41,"RoadSafety",33838144s (~1.07 years),55.9493121693122,689,21.295052,-157.830368,"HI",689,1,343.7608,NA,"AggieReverseGeocoder",NA,4.01,"1970 S King St","Urban Honolulu","HI",96826,2138,28002001,"UrbanHNL",683000,"600k+"
"157",306164,"Pothole","Closed","Pothole","01/19/2017 01:38:44 PM","02/16/2018 01:39:28 PM","(21.317673, -157.848633)",2017-01-19 13:38:44,2018-02-16 13:39:28,"RoadSafety",33955244s (~1.08 years),56.1429298941799,1040,21.317673,-157.848633,"HI",1040,1,249.9944,NA,"AggieReverseGeocoder",NA,4.01,"1901 Lusitana St","Urban Honolulu","HI",96813,1531,22013074,"UrbanHNL",683000,"600k+"
"158",303192,"Pothole","Closed","Pothole about foot in diameter 4 inches deep. When facing Hamakua Marsh directly in front of you it's in the left lane.","01/09/2017 12:42:13 AM","02/16/2018 01:31:38 PM","(21.389961, -157.739639)",2017-01-09 00:42:13,2018-02-16 13:31:38,"RoadSafety",34865365s (~1.1 years),57.6477595899471,214,21.389961,-157.739639,"HI",214,1,343.7789,NA,"AggieReverseGeocoder",NA,4.01,"392 Aoloa St","Waimanalo","HI",96734,3001,42001056,"Windward",604900,"600k+"
"159",302891,"Trash","Closed","Chair and other large furniture item discarded off sidewalk well before bulk pick-up date.","01/06/2017 06:44:19 PM","02/16/2018 01:30:06 PM","(21.290802, -157.8255)",2017-01-06 18:44:19,2018-02-16 13:30:06,"Trash",35059547s (~1.11 years),57.9688277116402,42,21.290802,-157.8255,"HI",42,1,1156.1995,NA,"AggieReverseGeocoder",NA,4.01,"803 Coolidge St","Urban Honolulu","HI",96826,3011,27009017,"UrbanHNL",683000,"600k+"
"160",302881,"Flooding","Closed","Slow leak manhole cover not an emergency","01/06/2017 04:03:27 PM","02/16/2018 01:29:10 PM","(21.275658, -157.766296)",2017-01-06 16:03:27,2018-02-16 13:29:10,"Water",35069143s (~1.11 years),57.9846941137566,745,21.275658,-157.766296,"HI",745,1,453.1284,NA,"AggieReverseGeocoder",NA,4.01,"4889 Kalanianaole Hwy","Urban Honolulu","HI",96821,1544,35058022,"UrbanHNL",683000,"600k+"
"161",302777,"Vehicle","Closed","White van with paint peeling on roof","01/06/2017 09:24:43 AM","01/06/2017 09:40:58 AM","(21.336271, -157.854416)",2017-01-06 09:24:43,2017-01-06 09:40:58,"Vehicle",975s (~16.25 minutes),0.00161210317460317,738,21.336271,-157.854416,"HI",738,1,1234.3479,NA,"AggieReverseGeocoder",NA,4.01,"1315 Mamalu St","Urban Honolulu","HI",96817,1242,18032035,"UrbanHNL",683000,"600k+"
"162",301981,"Broken / Vandalized signs","Closed","Something hit the traffic light and pedestrian signal, it is turned so that it is no longer visible","01/03/2017 07:36:30 AM","02/16/2018 01:28:26 PM","(21.40840957, -158.177137556)",2017-01-03 07:36:30,2018-02-16 13:28:26,"RoadSafety",35358716s (~1.12 years),58.4634854497355,1118,21.40840957,-158.177137556,"HI",1118,1,656.2781,NA,"AggieReverseGeocoder",NA,4.01,"87-105 MAIPALAOA RD","Waianae","HI",96792,NA,492392,"Leeward",375100,"300k+"
"163",301277,"Pothole","Closed","Large pothole coming off the freeway directly after the stop sign for the mergeing traffic from S King St.  super dangerous for motorcycles and mopeds.","12/29/2016 10:06:58 AM","02/16/2018 11:55:41 AM","(21.289347, -157.816666)",2016-12-29 10:06:58,2018-02-16 11:55:41,"RoadSafety",35776123s (~1.13 years),59.153642526455,685,21.289347,-157.816666,"HI",685,1,718.7371,NA,"AggieReverseGeocoder",NA,4.01,"2920 S King St","Urban Honolulu","HI",96826,3565,27028035,"UrbanHNL",683000,"600k+"
"164",300681,"Flooding","Closed","Ignore the photo. Just wanted to let u know that corner of Ala Wai and McCully, at the grass island in front of the Waikiki Landmark, the sprinklers have been on since Friday. It is now Monday, I know, no one working since it is Christmas, but we are was","12/26/2016 09:47:17 PM","02/16/2018 11:54:36 AM","(21.289902, -157.834229)",2016-12-26 21:47:17,2018-02-16 11:54:36,"Water",35993239s (~1.14 years),59.5126306216931,465,21.289902,-157.834229,"HI",465,1,171.9143,NA,"AggieReverseGeocoder",NA,4.01,"1861 Kapiolani Blvd","Urban Honolulu","HI",96826,3810,23034020,"UrbanHNL",683000,"600k+"
"165",300496,"Pothole","Closed","Pothole","12/25/2016 07:18:36 AM","02/16/2018 11:54:02 AM","(21.317699, -157.854782)",2016-12-25 07:18:36,2018-02-16 11:54:02,"RoadSafety",36131726s (~1.14 years),59.7416104497354,1449,21.317699,-157.854782,"HI",1449,1,1457.6179,NA,"AggieReverseGeocoder",NA,4.01,"1650 Nuuanu Ave","Urban Honolulu","HI",96817,3260,17009001,"UrbanHNL",683000,"600k+"
"166",300407,"Pothole","Closed","2nd Reguest Concerning 2 foot+ pot hole Dillingham Boulevard. adjacent to Honolulu Community College - carpenter and mason school side of HCC.","12/23/2016 01:56:18 PM","02/16/2018 11:54:06 AM","(21.31942, -157.868225)",2016-12-23 13:56:18,2018-02-16 11:54:06,"RoadSafety",36280668s (~1.15 years),59.987876984127,306,21.31942,-157.868225,"HI",306,1,171.9111,NA,"AggieReverseGeocoder",NA,4.01,"915 Robello Ln","Urban Honolulu","HI",96817,4546,15006028,"UrbanHNL",683000,"600k+"
"167",300309,"Light","Closed","Pathway lamp light STILL out.","12/22/2016 06:22:52 PM","02/16/2018 11:54:07 AM","(21.284231, -157.827225)",2016-12-22 18:22:52,2018-02-16 11:54:07,"RoadSafety",36351075s (~1.15 years),60.1042906746032,499,21.284231,-157.827225,"HI",499,1,296.8948,NA,"AggieReverseGeocoder",NA,4.01,"2021 Kapiolani Blvd","Urban Honolulu","HI",96826,3947,27036001,"UrbanHNL",683000,"600k+"
"168",298669,"Homeless","Closed","Exactly how are we supposed to utilize this bus stop next to the Windward Mall? An everyday occurrence.","12/14/2016 07:46:31 AM","02/16/2018 11:52:15 AM","(21.420877, -157.803467)",2016-12-14 07:46:31,2018-02-16 11:52:15,"Homeless",37080344s (~1.18 years),61.3100925925926,986,21.420877,-157.803467,"HI",986,1,1220.3201,NA,"AggieReverseGeocoder",NA,4.01,"46-47 KAM HWY","Kaneohe","HI",96744,NA,525318,"Windward",770700,"700k+"
"169",298216,"Trash","Closed","Illegal dumping on pauahi street near entrance to smith Beretania park","12/12/2016 10:03:27 AM","02/16/2018 11:51:28 AM","(21.311985, -157.861588)",2016-12-12 10:03:27,2018-02-16 11:51:28,"Trash",37244881s (~1.18 years),61.582144510582,1162,21.311985,-157.861588,"HI",1162,1,1187.5519,NA,"AggieReverseGeocoder",NA,4.01,"1170 Nuuanu Ave","Urban Honolulu","HI",96817,5142,17004004,"UrbanHNL",683000,"600k+"
"170",296443,"Broken / Vandalized signs","Closed","No parking sign displaced.","12/04/2016 08:43:06 AM","02/16/2018 11:49:45 AM","(21.4255712, -157.7449259)",2016-12-04 08:43:06,2018-02-16 11:49:45,"RoadSafety",37940799s (~1.2 years),62.7328025793651,574,21.4255712,-157.7449259,"HI",574,1,46.8766,NA,"AggieReverseGeocoder",NA,4.01,"721 Mokapu Rd","Waimanalo","HI",96734,1630,44005012,"Windward",604900,"600k+"
"171",296081,"Stream","Closed","Ditch blocked. Behind aikahi el school. In aikahi city park.","12/02/2016 07:20:47 AM","02/16/2018 11:48:54 AM","(21.42650608, -157.74993827)",2016-12-02 07:20:47,2018-02-16 11:48:54,"Water",38118487s (~1.21 years),63.0265988756614,182,21.42650608,-157.74993827,"HI",182,1,93.785,NA,"AggieReverseGeocoder",NA,4.01,"78 Aikahi Loop","Waimanalo","HI",96734,1676,44003011,"Windward",604900,"600k+"
"172",295887,"Vehicle","Closed","Large Ram P/U with a piece of lumber on roof racks","12/01/2016 10:06:41 AM","12/01/2016 10:11:19 AM","(21.393181, -157.726501)",2016-12-01 10:06:41,2016-12-01 10:11:19,"Vehicle",278s (~4.63 minutes),0.000459656084656085,485,21.393181,-157.726501,"HI",485,1,249.9788,NA,"AggieReverseGeocoder",NA,4.01,"140 Alala Rd","Waimanalo","HI",96734,3125,42055012,"Windward",604900,"600k+"
"173",294633,"Trash","Closed","Large format printer and upholstered dining chair discarded outside well before bulk pick-up date at this repeat-offending address.","11/26/2016 06:17:51 PM","02/16/2018 11:47:36 AM","(21.291237, -157.827759)",2016-11-26 18:17:51,2018-02-16 11:47:36,"Trash",38597385s (~1.22 years),63.8184275793651,1274,21.291237,-157.827759,"HI",1274,1,250.0157,NA,"AggieReverseGeocoder",NA,4.01,"2234 Citron St","Urban Honolulu","HI",96826,2854,27008003,"UrbanHNL",683000,"600k+"
"174",294222,"Broken / Vandalized signs","Closed","Missing street name sign","11/23/2016 01:20:54 PM","02/16/2018 11:47:42 AM","(21.337905774, -158.038586181)",2016-11-23 13:20:54,2018-02-16 11:47:42,"RoadSafety",38874408s (~1.23 years),64.2764682539683,839,21.337905774,-158.038586181,"HI",839,1,2353.3454,NA,"AggieReverseGeocoder",NA,4.01,"91-1632 TENNEY ST","Ewa Beach","HI",96706,NA,337605,"Leeward",551200,"500k+"
"175",294180,"Trash","Closed","Mattress, corrugated metal roofing","11/23/2016 10:48:00 AM","11/30/2016 12:36:40 PM","(21.316385, -157.796799)",2016-11-23 10:48:00,2016-11-30 12:36:40,"Trash",611320s (~1.01 weeks),1.01078042328042,1494,21.316385,-157.796799,"HI",1494,1,468.7854,NA,"AggieReverseGeocoder",NA,4.01,"3459 Paty Dr","Urban Honolulu","HI",96822,1444,29070023,"UrbanHNL",683000,"600k+"
"176",293607,"Broken / Vandalized signs","Closed","Stop sign and street sign on makai/ewa corner of Cooke and kawaiahao laying in grass.","11/21/2016 05:03:42 AM","02/16/2018 11:46:44 AM","(21.30069, -157.855927)",2016-11-21 05:03:42,2018-02-16 11:46:44,"RoadSafety",39076982s (~1.24 years),64.611412037037,1230,21.30069,-157.855927,"HI",1230,1,953.1782,NA,"AggieReverseGeocoder",NA,4.01,"725 Kapiolani Blvd","Urban Honolulu","HI",96813,6012,21049027,"UrbanHNL",683000,"600k+"
"177",292870,"Light","Closed","Street light out. Pole located by 91-934 Hoomohalu Pl.","11/17/2016 12:31:05 AM","02/16/2018 11:46:04 AM","(21.333881, -158.01532)",2016-11-17 00:31:05,2018-02-16 11:46:04,"RoadSafety",39438899s (~1.25 years),65.2098197751323,1699,21.333881,-158.01532,"HI",1699,1,1765.5912,NA,"AggieReverseGeocoder",NA,4.01,"91-934 HOOMOHALU PL","Ewa Beach","HI",96706,NA,359644,"Leeward",551200,"500k+"
"178",292865,"Tree","Closed","Plants are overgrown.  Concerned resident advised that it poses a hazard to drivers and   people who pass it.","11/16/2016 10:41:07 PM","02/16/2018 11:44:55 AM","(21.343997177, -158.035323148)",2016-11-16 22:41:07,2018-02-16 11:44:55,"Tree",39445428s (~1.25 years),65.2206150793651,988,21.343997177,-158.035323148,"HI",988,1,1781.3476,NA,"AggieReverseGeocoder",NA,4.01,"91-1242 ALANUI MAUKA ST","Ewa Beach","HI",96706,NA,172115,"Leeward",551200,"500k+"
"179",292854,"Vehicle","Closed","Never moves!","11/16/2016 04:58:24 PM","11/17/2016 07:44:42 AM","(21.277115, -157.81398)",2016-11-16 16:58:24,2016-11-17 07:44:42,"Vehicle",53178s (~14.77 hours),0.0879265873015873,1412,21.277115,-157.81398,"HI",1412,1,359.4048,NA,"AggieReverseGeocoder",NA,4.01,"539 Kapahulu Ave","Urban Honolulu","HI",96815,3855,31017044,"UrbanHNL",683000,"600k+"
"180",292412,"Pothole","Closed","Hope that I keep falling into.","11/15/2016 10:10:57 AM","11/15/2016 01:34:15 PM","(21.433636263, -157.824090678)",2016-11-15 10:10:57,2016-11-15 13:34:15,"RoadSafety",12198s (~3.39 hours),0.0201686507936508,619,21.433636263,-157.824090678,"HI",619,1,902.0139,NA,"AggieReverseGeocoder",NA,4.01,"47-181 HUI AKEPA PL","Kaneohe","HI",96744,NA,633530,"Windward",770700,"700k+"
"181",292256,"Vehicle","Closed","Hasn't moved for a few weeks and also has a """"for sale"""" sign on it.","11/15/2016 03:54:20 AM","11/15/2016 08:44:31 AM","(21.288044, -157.819489)",2016-11-15 03:54:20,2016-11-15 08:44:31,"Vehicle",17411s (~4.84 hours),0.0287880291005291,344,21.288044,-157.819489,"HI",344,1,436.9865,NA,"AggieReverseGeocoder",NA,4.01,"823 Waiaka Pl","Urban Honolulu","HI",96826,3455,27027018,"UrbanHNL",683000,"600k+"
"182",292241,"Pothole","Closed","Multiple pot holes. It's a recurring thing.","11/14/2016 11:43:14 PM","02/16/2018 11:43:46 AM","(21.339367, -158.021271)",2016-11-14 23:43:14,2018-02-16 11:43:46,"RoadSafety",39614432s (~1.26 years),65.5000529100529,792,21.339367,-158.021271,"HI",792,1,2083.5386,NA,"AggieReverseGeocoder",NA,4.01,"91-225 KEONEKAPU PL","Ewa Beach","HI",96706,NA,101991,"Leeward",551200,"500k+"
"183",291611,"Tree","Closed","Three homes has grass overgrown along sidewalks","11/11/2016 03:18:32 PM","02/16/2018 11:41:57 AM","(21.322515761, -157.804071747)",2016-11-11 15:18:32,2018-02-16 11:41:57,"Tree",39903805s (~1.26 years),65.9785135582011,127,21.322515761,-157.804071747,"HI",127,1,906.2969,NA,"AggieReverseGeocoder",NA,4.01,"3432 Manoa Rd","Urban Honolulu","HI",96822,1129,29061010,"UrbanHNL",683000,"600k+"
"184",291493,"Vehicle","Closed","Abandoned vehicle SDC 684, broken driver side window. Parked facing opposite of flow of traffic for over 7 days.","11/10/2016 07:49:06 PM","11/14/2016 08:27:48 AM","(21.29619317, -157.805165991)",2016-11-10 19:49:06,2016-11-14 08:27:48,"Vehicle",304722s (~3.53 days),0.503839285714286,1258,21.29619317,-157.805165991,"HI",1258,1,781.2415,NA,"AggieReverseGeocoder",NA,4.01,"1580 Alencastre St","Urban Honolulu","HI",96816,1937,33052017,"UrbanHNL",683000,"600k+"
"185",291488,"Homeless","Closed","Garbage can on the public right away for several days after pickup","11/10/2016 05:35:00 PM","02/16/2018 11:42:01 AM","(21.404442, -157.739182)",2016-11-10 17:35:00,2018-02-16 11:42:01,"Homeless",39982021s (~1.27 years),66.1078389550265,887,21.404442,-157.739182,"HI",887,1,93.7898,NA,"AggieReverseGeocoder",NA,4.01,"28 Kalaka Pl","Waimanalo","HI",96734,2301,43016015,"Windward",604900,"600k+"
"186",291268,"Light","Closed","Both inner and outer (Riverside) intermittently flickering off and on.","11/09/2016 09:02:08 PM","02/16/2018 11:42:05 AM","(21.31529841, -157.86045296)",2016-11-09 21:02:08,2018-02-16 11:42:05,"RoadSafety",40055997s (~1.27 years),66.2301537698413,65,21.31529841,-157.86045296,"HI",65,1,1437.4921,NA,"AggieReverseGeocoder",NA,4.01,"100 N Beretania St","Urban Honolulu","HI",96817,4712,17005019,"UrbanHNL",683000,"600k+"
"187",291255,"Vehicle","Closed","black pick up","11/09/2016 06:05:55 PM","02/16/2018 11:42:06 AM","(21.310422074, -157.711713569)",2016-11-09 18:05:55,2018-02-16 11:42:06,"Vehicle",40066571s (~1.27 years),66.2476372354497,150,21.310422074,-157.711713569,"HI",150,1,93.797,NA,"AggieReverseGeocoder",NA,4.01,"993 Pukoo Pl","East Honolulu","HI",96825,1069,39085042,"EastHNL",959800,"900k+"
"188",289636,"Tree","Closed","Grass and plants are encroaching into sidewalk","11/02/2016 11:05:21 PM","02/16/2018 11:40:05 AM","(21.315099378, -157.804411622)",2016-11-02 23:05:21,2018-02-16 11:40:05,"Tree",40653284s (~1.29 years),67.2177314814815,934,21.315099378,-157.804411622,"HI",934,1,171.8514,NA,"AggieReverseGeocoder",NA,4.01,"3236 East Manoa Rd","Urban Honolulu","HI",96822,1300,29037039,"UrbanHNL",683000,"600k+"
"189",287840,"Tree","Closed","Very overgrown weeds all along the fence that is in between the school/park and Laulani Tides and Trades.  Weeds are encroaching on homeowners' emcees and yards.","10/26/2016 09:04:18 AM","02/16/2018 11:32:56 AM","(21.324303, -158.021027)",2016-10-26 09:04:18,2018-02-16 11:32:56,"Tree",41308118s (~1.31 years),68.3004596560847,364,21.324303,-158.021027,"HI",364,1,1578.2608,NA,"AggieReverseGeocoder",NA,4.01,"91-1001 KEAUNUI DR","Ewa Beach","HI",96706,NA,160874,"Leeward",551200,"500k+"
"190",287558,"Vehicle","Closed","It's in the first stall from Kapiolani Blvd right side. Hasn't moved for months.","10/25/2016 09:29:53 AM","10/25/2016 09:48:57 AM","(21.288301, -157.816483)",2016-10-25 09:29:53,2016-10-25 09:48:57,"Vehicle",1144s (~19.07 minutes),0.00189153439153439,1368,21.288301,-157.816483,"HI",1368,1,1125.0298,NA,"AggieReverseGeocoder",NA,4.01,"2705 Kaimuki Ave","Urban Honolulu","HI",96816,1312,27024001,"UrbanHNL",683000,"600k+"
"191",287335,"Vehicle","Closed","Parked over 6 months without moving.","10/24/2016 05:07:10 PM","10/25/2016 09:28:02 AM","(21.32118, -158.022659)",2016-10-24 17:07:10,2016-10-25 09:28:02,"Vehicle",58852s (~16.35 hours),0.0973082010582011,1291,21.32118,-158.022659,"HI",1291,1,1749.982,NA,"AggieReverseGeocoder",NA,4.01,"91-1016 KAIPALAOA ST","Ewa Beach","HI",96706,NA,129539,"Leeward",551200,"500k+"
"192",287051,"Trash","Closed","Microwave and stand discarded outside well before bulk pick-up date.","10/23/2016 06:34:17 PM","02/16/2018 11:31:16 AM","(21.29097, -157.822968)",2016-10-23 18:34:17,2018-02-16 11:31:16,"Trash",41533019s (~1.32 years),68.6723197751323,1075,21.29097,-157.822968,"HI",1075,1,359.26,NA,"AggieReverseGeocoder",NA,4.01,"902 University Ave","Urban Honolulu","HI",96826,3273,27016025,"UrbanHNL",683000,"600k+"
"193",286738,"Vehicle","Closed","Jetta. Parked for over a couple weeks.","10/21/2016 02:38:41 PM","10/21/2016 02:59:32 PM","(21.29196747, -157.82592398)",2016-10-21 14:38:41,2016-10-21 14:59:32,"Vehicle",1251s (~20.85 minutes),0.00206845238095238,1184,21.29196747,-157.82592398,"HI",1184,1,390.5946,NA,"AggieReverseGeocoder",NA,4.01,"903 Isenberg St","Urban Honolulu","HI",96826,2934,27009055,"UrbanHNL",683000,"600k+"
"194",285603,"Vehicle","Closed","Registration expired 10/2015!Inspection expired 05/2015!Please ticket and tow!!","10/17/2016 10:32:17 AM","10/17/2016 11:43:12 AM","(21.348602, -158.085342)",2016-10-17 10:32:17,2016-10-17 11:43:12,"Vehicle",4255s (~1.18 hours),0.0070353835978836,1512,21.348602,-158.085342,"HI",1512,1,1461.9843,NA,"AggieReverseGeocoder",NA,4.01,"92-678 MAKAKILO DR","Kapolei","HI",96707,NA,243398,"Leeward",570800,"500k+"
"195",285360,"Broken / Vandalized signs","Closed","Graffiti on street sign","10/16/2016 02:21:00 PM","10/19/2016 11:33:25 AM","(21.310989301, -157.808575959)",2016-10-16 14:21:00,2016-10-19 11:33:25,"RoadSafety",249145s (~2.88 days),0.411946097883598,1367,21.310989301,-157.808575959,"HI",1367,1,343.7324,NA,"AggieReverseGeocoder",NA,4.01,"2846 Lowrey Ave","Urban Honolulu","HI",96822,1643,29029040,"UrbanHNL",683000,"600k+"
"196",284794,"Vehicle","Closed","Has not moved since checked on 10/6 -owner no longer lives on street","10/13/2016 10:22:15 AM","10/13/2016 12:13:30 PM","(21.398405, -157.749176)",2016-10-13 10:22:15,2016-10-13 12:13:30,"Vehicle",6675s (~1.85 hours),0.0110367063492063,1309,21.398405,-157.749176,"HI",1309,1,312.5061,NA,"AggieReverseGeocoder",NA,4.01,"605 Auwai St","Waimanalo","HI",96734,2433,43062019,"Windward",604900,"600k+"
"197",283712,"Vehicle","Closed","Gild colored vehicle parked in front of """"Nuuanu Parkside"""" (2047 Nuuanu Ave).","10/09/2016 07:28:13 AM","10/10/2016 10:35:07 AM","(21.322235, -157.849594)",2016-10-09 07:28:13,2016-10-10 10:35:07,"Vehicle",97614s (~1.13 days),0.16139880952381,1694,21.322235,-157.849594,"HI",1694,1,744.1789,NA,"AggieReverseGeocoder",NA,4.01,"2047 Nuuanu Ave","Urban Honolulu","HI",96817,2500,22010024,"UrbanHNL",683000,"600k+"
"198",282365,"Vehicle","Closed","Abandoned Vehicle","10/03/2016 02:10:10 PM","10/04/2016 08:27:57 AM","(21.347443, -158.034958)",2016-10-03 14:10:10,2016-10-04 08:27:57,"Vehicle",65867s (~18.3 hours),0.108907076719577,983,21.347443,-158.034958,"HI",983,1,1078.1203,NA,"AggieReverseGeocoder",NA,4.01,"91-1301 KILIPUE ST","Ewa Beach","HI",96706,NA,419539,"Leeward",551200,"500k+"
"199",281555,"Trash","Closed","Pieces of wood and dining chairs discarded off of sidewalk prior to bulk pick-up date.","09/29/2016 06:11:30 PM","02/09/2018 03:56:24 PM","(21.289253, -157.824234)",2016-09-29 18:11:30,2018-02-09 15:56:24,"Trash",43019094s (~1.36 years),71.1294543650794,693,21.289253,-157.824234,"HI",693,1,457.0962,NA,"AggieReverseGeocoder",NA,4.01,"727 University Ave","Urban Honolulu","HI",96826,3155,27015027,"UrbanHNL",683000,"600k+"
"200",281494,"Trash","Closed","Illegal dump site.  Couches,tabs, etc","09/29/2016 12:26:06 PM","02/09/2018 03:56:24 PM","(21.48455, -157.84726)",2016-09-29 12:26:06,2018-02-09 15:56:24,"Trash",43039818s (~1.36 years),71.1637202380952,487,21.48455,-157.84726,"HI",487,1,734.3654,NA,"AggieReverseGeocoder",NA,4.01,"48-199 KAM HWY","Kaneohe","HI",96744,NA,520672,"Windward",770700,"700k+"
"201",280724,"Vehicle","Closed","Black 2 door","09/27/2016 06:14:37 AM","09/27/2016 09:41:39 AM","(21.296215396, -157.845363341)",2016-09-27 06:14:37,2016-09-27 09:41:39,"Vehicle",12422s (~3.45 hours),0.0205390211640212,1484,21.296215396,-157.845363341,"HI",1484,1,484.3376,NA,"AggieReverseGeocoder",NA,4.01,"1210 Kamaile St","Urban Honolulu","HI",96814,2977,23014054,"UrbanHNL",683000,"600k+"
"202",280621,"Vehicle","Closed","See picture or ref rpt#655504","09/26/2016 11:01:13 PM","09/27/2016 10:00:42 AM","(21.398651, -157.749176)",2016-09-26 23:01:13,2016-09-27 10:00:42,"Vehicle",39569s (~10.99 hours),0.0654249338624339,1403,21.398651,-157.749176,"HI",1403,1,156.2367,NA,"AggieReverseGeocoder",NA,4.01,"601 Auwai St","Waimanalo","HI",96734,2433,43062021,"Windward",604900,"600k+"
"203",280416,"Light","Closed","This is a test","09/26/2016 08:30:05 AM","09/26/2016 08:34:38 AM","(21.297928, -157.820801)",2016-09-26 08:30:05,2016-09-26 08:34:38,"RoadSafety",273s (~4.55 minutes),0.000451388888888889,334,21.297928,-157.820801,"HI",334,1,390.6299,NA,"AggieReverseGeocoder",NA,4.01,"2444 Dole St","Urban Honolulu","HI",96822,2399,28023003,"UrbanHNL",683000,"600k+"
"204",279706,"Tree","Closed","Why was this request closed immediately? I should not be the one referring the power line problem to HECO when it is a result of CITY poorly planned and planted trees. Please perform your job duties appropriately.","09/22/2016 01:29:33 PM","09/26/2016 10:16:04 AM","(21.309237, -157.818359)",2016-09-22 13:29:33,2016-09-26 10:16:04,"Tree",333991s (~3.87 days),0.552233796296296,504,21.309237,-157.818359,"HI",504,1,1046.8348,NA,"AggieReverseGeocoder",NA,4.01,"2625 Kuahine Dr","Urban Honolulu","HI",96822,1720,29010020,"UrbanHNL",683000,"600k+"
"205",279274,"Tree","Closed","Dangerous branch","09/21/2016 10:36:52 AM","02/09/2018 03:52:53 PM","(21.308899, -157.830368)",2016-09-21 10:36:52,2018-02-09 15:52:53,"Tree",43737361s (~1.39 years),72.3170651455026,1582,21.308899,-157.830368,"HI",1582,1,1296.9122,NA,"AggieReverseGeocoder",NA,4.01,"2007 Round Top Dr","Urban Honolulu","HI",96822,2058,25007010,"UrbanHNL",683000,"600k+"
"206",279051,"Trash","Closed","Illegal dump.  Green waste.  Car parts.  Air conditioner.  Building materials","09/20/2016 03:28:37 PM","10/03/2016 01:13:28 PM","(21.366371, -157.782578)",2016-09-20 15:28:37,2016-10-03 13:13:28,"Trash",1115091s (~1.84 weeks),1.84373511904762,958,21.366371,-157.782578,"HI",958,1,830.8791,NA,"AggieReverseGeocoder",NA,4.01,"1199 Auloa Rd","Waimanalo","HI",96734,4606,45035003,"Windward",604900,"600k+"
"207",278661,"Stream","Closed","Testing","09/19/2016 03:42:21 PM","12/16/2016 03:23:07 PM","(21.304459696, -157.854508528)",2016-09-19 15:42:21,2016-12-16 15:23:07,"Water",7602046s (~12.57 weeks),12.5695205026455,810,21.304459696,-157.854508528,"HI",810,1,234.3839,NA,"AggieReverseGeocoder",NA,4.01,"1130 Alapai St","Urban Honolulu","HI",96813,2584,21033010,"UrbanHNL",683000,"600k+"
"208",278169,"Trash","Closed","Requesting a dead cat pickup outside of fence under the banyan tree","09/17/2016 10:03:09 AM","02/09/2018 03:52:26 PM","(21.425163, -158.175674)",2016-09-17 10:03:09,2018-02-09 15:52:26,"Trash",44084957s (~1.4 years),72.8917939814815,683,21.425163,-158.175674,"HI",683,1,1078.1397,NA,"AggieReverseGeocoder",NA,4.01,"87-141 KULAAUPUNI ST","Waianae","HI",96792,NA,574721,"Leeward",375100,"300k+"
"209",278017,"Vehicle","Closed","No plates","09/16/2016 08:29:08 AM","09/16/2016 09:20:32 AM","(21.32442202, -157.87306769)",2016-09-16 08:29:08,2016-09-16 09:20:32,"Vehicle",3084s (~51.4 minutes),0.00509920634920635,320,21.32442202,-157.87306769,"HI",320,1,562.542,NA,"AggieReverseGeocoder",NA,4.01,"801 Moowaa St","Urban Honolulu","HI",96817,4444,15019012,"UrbanHNL",683000,"600k+"
"210",277901,"Trash","Closed","1505 kewalo.  Construction rubbish","09/15/2016 06:29:52 PM","09/16/2016 09:19:09 AM","(21.30418884, -157.83945734)",2016-09-15 18:29:52,2016-09-16 09:19:09,"Trash",53357s (~14.82 hours),0.0882225529100529,612,21.30418884,-157.83945734,"HI",612,1,406.2718,NA,"AggieReverseGeocoder",NA,4.01,"1508 Kewalo St","Urban Honolulu","HI",96822,4281,24020008,"UrbanHNL",683000,"600k+"
"211",277314,"Light","Closed","Broken street light.please fix it.Near 7-11 on Nuianu Ave just before Kukini.","09/14/2016 05:14:56 AM","02/09/2018 03:52:33 PM","(21.318604, -157.853851)",2016-09-14 05:14:56,2018-02-09 15:52:33,"RoadSafety",44361457s (~1.41 years),73.3489699074074,147,21.318604,-157.853851,"HI",147,1,1417.4049,NA,"AggieReverseGeocoder",NA,4.01,"1741 Nuuanu Ave","Urban Honolulu","HI",96813,3249,22001019,"UrbanHNL",683000,"600k+"
"212",275943,"Homeless","Closed","Illegal camping at Waikiki bandstand.  After hours when park is closed","09/09/2016 07:08:37 AM","02/09/2018 03:51:45 PM","(21.268618, -157.82103)",2016-09-09 07:08:37,2018-02-09 15:51:45,"Homeless",44786588s (~1.42 years),74.0518981481482,1584,21.268618,-157.82103,"HI",1584,1,843.7338,NA,"AggieReverseGeocoder",NA,4.01,"2755 Kalakaua Ave","Urban Honolulu","HI",96815,4027,31043014,"UrbanHNL",683000,"600k+"
"213",275236,"Pothole","Closed","Deep potholes","09/06/2016 08:50:50 PM","02/09/2018 03:50:43 PM","(21.312037, -157.804184)",2016-09-06 20:50:50,2018-02-09 15:50:43,"RoadSafety",44996393s (~1.43 years),74.3987979497355,120,21.312037,-157.804184,"HI",120,1,1735.5484,NA,"AggieReverseGeocoder",NA,4.01,"2962 Kahaloa Dr","Urban Honolulu","HI",96822,1532,29038003,"UrbanHNL",683000,"600k+"
"214",274888,"Vehicle","Closed","White car","09/05/2016 02:33:15 PM","09/06/2016 11:20:02 AM","(21.326732662, -158.001653407)",2016-09-05 14:33:15,2016-09-06 11:20:02,"Vehicle",74807s (~20.78 hours),0.123688822751323,611,21.326732662,-158.001653407,"HI",611,1,1687.5268,NA,"AggieReverseGeocoder",NA,4.01,"91-1188 KAUIKI ST","Ewa Beach","HI",96706,NA,634782,"Leeward",551200,"500k+"
"215",274481,"Vehicle","Closed","Passat","09/02/2016 06:10:00 PM","09/06/2016 09:17:44 AM","(21.3412038, -157.83235614)",2016-09-02 18:10:00,2016-09-06 09:17:44,"Vehicle",313664s (~3.63 days),0.518624338624339,525,21.3412038,-157.83235614,"HI",525,1,453.1994,NA,"AggieReverseGeocoder",NA,4.01,"32 Kepola Pl","Urban Honolulu","HI",96817,5250,22050029,"UrbanHNL",683000,"600k+"
"216",274473,"Vehicle","Closed","Abandoned vehicle,  been here forever","09/02/2016 04:54:07 PM","09/06/2016 08:50:44 AM","(21.328688107, -157.865185501)",2016-09-02 16:54:07,2016-09-06 08:50:44,"Vehicle",316597s (~3.66 days),0.523473875661376,347,21.328688107,-157.865185501,"HI",347,1,359.3698,NA,"AggieReverseGeocoder",NA,4.01,"1534 Kokea St","Urban Honolulu","HI",96817,2811,16006050,"UrbanHNL",683000,"600k+"
"217",273382,"Stormwater","Closed","Clear out ditch of overgrown vegetation","08/30/2016 08:49:35 AM","02/09/2018 03:30:45 PM","(21.314392567, -157.804860898)",2016-08-30 08:49:35,2018-02-09 15:30:45,"Water",45643270s (~1.45 years),75.4683697089947,1709,21.314392567,-157.804860898,"HI",1709,1,1173.7587,NA,"AggieReverseGeocoder",NA,4.01,"3176 East Manoa Rd","Urban Honolulu","HI",96822,1321,29037020,"UrbanHNL",683000,"600k+"
"218",273381,"Broken / Vandalized signs","Closed","Downed sign","08/30/2016 08:48:11 AM","02/09/2018 03:30:45 PM","(21.313950247, -157.806703385)",2016-08-30 08:48:11,2018-02-09 15:30:45,"RoadSafety",45643354s (~1.45 years),75.4685085978836,429,21.313950247,-157.806703385,"HI",429,1,265.6127,NA,"AggieReverseGeocoder",NA,4.01,"3155 Manoa Rd","Urban Honolulu","HI",96822,1228,29036003,"UrbanHNL",683000,"600k+"
"219",272834,"Pothole","Closed","At the intersection of Kuhio and seaside is a 24 inch by 24 inch by 5 inch deep pothole. Even city bus has trouble avoiding. Kindly request repair.  Aloha Douglas","08/28/2016 06:29:03 PM","08/30/2016 08:02:23 AM","(21.280158595, -157.827009612)",2016-08-28 18:29:03,2016-08-30 08:02:23,"RoadSafety",135200s (~1.56 days),0.223544973544974,1482,21.280158595,-157.827009612,"HI",1482,1,437.5089,NA,"AggieReverseGeocoder",NA,4.01,"2255 Kuhio Ave","Urban Honolulu","HI",96815,2642,26022004,"UrbanHNL",683000,"600k+"
"220",272637,"Trash","Closed","Address should be 917 Hausten St. Bookcase and ironing board discarded outside well before bulk pick-up date.","08/27/2016 10:33:40 AM","09/07/2016 11:14:53 AM","(21.291809, -157.824234)",2016-08-27 10:33:40,2016-09-07 11:14:53,"Trash",952873s (~1.58 weeks),1.57551752645503,1564,21.291809,-157.824234,"HI",1564,1,971.4901,NA,"AggieReverseGeocoder",NA,4.01,"918 Hausten St","Urban Honolulu","HI",96826,3095,27009006,"UrbanHNL",683000,"600k+"
"221",271982,"Trash","Closed","Abandoned mattress on smith beretania park entrance. Also old refrigerator across street","08/24/2016 03:34:37 PM","02/09/2018 03:28:36 PM","(21.311993, -157.861343)",2016-08-24 15:34:37,2018-02-09 15:28:36,"Trash",46137239s (~1.46 years),76.2851173941799,968,21.311993,-157.861343,"HI",968,1,171.9134,NA,"AggieReverseGeocoder",NA,4.01,"1170 Nuuanu Ave","Urban Honolulu","HI",96817,5142,17004004,"UrbanHNL",683000,"600k+"
"222",271975,"Vehicle","Closed","Vehicle is parked on Tenney  street. Address is actually an empty lot which on public  record  belongs to the city and county of honolulu.  Vehicle has been parked here for weeks.","08/24/2016 03:10:56 PM","08/24/2016 03:20:41 PM","(21.341465869, -158.041387713)",2016-08-24 15:10:56,2016-08-24 15:20:41,"Vehicle",585s (~9.75 minutes),0.000967261904761905,136,21.341465869,-158.041387713,"HI",136,1,1898.3595,NA,"AggieReverseGeocoder",NA,4.01,"91-1123 PAEHEULU ST","Ewa Beach","HI",96706,NA,507581,"Leeward",551200,"500k+"
"223",271248,"Vehicle","Closed","Silver, sticker on trunk","08/22/2016 04:10:06 PM","08/23/2016 08:15:35 AM","(21.312352001, -158.023454735)",2016-08-22 16:10:06,2016-08-23 08:15:35,"Vehicle",57929s (~16.09 hours),0.0957820767195767,1324,21.312352001,-158.023454735,"HI",1324,1,1249.9074,NA,"AggieReverseGeocoder",NA,4.01,"91-1242 KAILEOLEA DR","Ewa Beach","HI",96706,NA,187403,"Leeward",551200,"500k+"
"224",270774,"Trash","Closed","Ironing board and other large item discarded off sidewalk well before bulk pick-up date.","08/20/2016 06:05:05 PM","09/28/2016 12:35:37 PM","(21.292274, -157.824875)",2016-08-20 18:05:05,2016-09-28 12:35:37,"Trash",3349832s (~5.54 weeks),5.53874338624339,336,21.292274,-157.824875,"HI",336,1,953.1441,NA,"AggieReverseGeocoder",NA,4.01,"931 Coolidge St","Urban Honolulu","HI",96826,3067,27009025,"UrbanHNL",683000,"600k+"
"225",270747,"Vehicle","Closed","White Lexus has been parked in the exact same spot for over 2 months","08/20/2016 04:06:13 PM","08/22/2016 11:03:12 AM","(21.277052, -157.814255)",2016-08-20 16:06:13,2016-08-22 11:03:12,"Vehicle",154619s (~1.79 days),0.255653108465608,204,21.277052,-157.814255,"HI",204,1,359.3881,NA,"AggieReverseGeocoder",NA,4.01,"539 Kapahulu Ave","Urban Honolulu","HI",96815,3855,31017044,"UrbanHNL",683000,"600k+"
